lat	lon	title	description	icon	iconSize	iconOffset
60.154	-2.074	foula	FOULA (00001) shetland lat: 60.154, long: -2.074, ele: 22 [active: 1985-2003]	img/daily-weather.png	24,24	0,-24
59.526	-1.63	fair-isle	FAIR ISLE (00003) shetland lat: 59.526, long: -1.63, ele: 57 [active: 1974-2017]	img/daily-weather.png	24,24	0,-24
59.879	-1.299	sumburgh	SUMBURGH (00004) shetland lat: 59.879, long: -1.299, ele: 7 [active: 1978-1996]	img/daily-weather.png	24,24	0,-24
60.104	-1.333	hamnavoe	HAMNAVOE (00005) shetland lat: 60.104, long: -1.333, ele: 21 [active: 1962-1972]	img/daily-weather.png	24,24	0,-24
60.533	-1.391	collafirth	COLLAFIRTH (00007) shetland lat: 60.533, long: -1.391, ele: 228 [active: 1963-1991]	img/daily-weather.png	24,24	0,-24
60.139	-1.185	lerwick	LERWICK (00009) shetland lat: 60.139, long: -1.185, ele: 82 [active: 1930-2017]	img/daily-weather.png	24,24	0,-24
60.447	-1.278	sella-ness	SELLA NESS (00010) shetland lat: 60.447, long: -1.278, ele: 7 [active: 1990-2003]	img/daily-weather.png	24,24	0,-24
60.748	-0.856	baltasound-no-2	BALTASOUND NO 2 (00012) shetland lat: 60.748, long: -0.856, ele: 15 [active: 1992-2017]	img/daily-weather.png	24,24	0,-24
60.759	-0.888	baltasound	BALTASOUND (00013) shetland lat: 60.759, long: -0.888, ele: 24 [active: 1914-1995]	img/daily-weather.png	24,24	0,-24
59.082	-4.405	sule-skerry	SULE SKERRY (00017) orkney lat: 59.082, long: -4.405, ele: 12 [active: 1957-1974]	img/daily-weather.png	24,24	0,-24
58.873	-3.387	rackwick	RACKWICK (00019) orkney lat: 58.873, long: -3.387, ele: 18 [active: 1987-2008]	img/daily-weather.png	24,24	0,-24
58.982	-3.223	stenness	STENNESS (00020) orkney lat: 58.982, long: -3.223, ele: 23 [active: 1947-1975]	img/daily-weather.png	24,24	0,-24
59.105	-3.088	evie	EVIE (00021) orkney lat: 59.105, long: -3.088, ele: 34 [active: 1965-1967]	img/daily-weather.png	24,24	0,-24
59.131	-3.148	costa	COSTA (00022) orkney lat: 59.131, long: -3.148, ele: 35 [active: 1961-1964]	img/daily-weather.png	24,24	0,-24
58.953	-2.901	kirkwall	KIRKWALL (00023) orkney lat: 58.953, long: -2.901, ele: 26 [active: 1957-2017]	img/daily-weather.png	24,24	0,-24
58.986	-2.948	weyland	WEYLAND (00024) orkney lat: 58.986, long: -2.948, ele: 24 [active: 1977-1979]	img/daily-weather.png	24,24	0,-24
59.361	-2.415	north-ronaldsay-gerbo	NORTH RONALDSAY, GERBO (00025) orkney lat: 59.361, long: -2.415, ele: 11 [active: 1987-1998]	img/daily-weather.png	24,24	0,-24
58.579	-3.739	dounreay	DOUNREAY (00026) caithness lat: 58.579, long: -3.739, ele: 21 [active: 1959-1983]	img/daily-weather.png	24,24	0,-24
58.18	-3.53	berriedale-langwell	BERRIEDALE, LANGWELL (00028) caithness lat: 58.18, long: -3.53, ele: 67 [active: 1981-1985]	img/daily-weather.png	24,24	0,-24
58.453	-3.559	halkirk-olgrinberg	HALKIRK , OLGRINBERG (00029) caithness lat: 58.453, long: -3.559, ele: 71 [active: 1959-1961]	img/daily-weather.png	24,24	0,-24
58.311	-3.285	lybster	LYBSTER (00031) caithness lat: 58.311, long: -3.285, ele: 85 [active: 1993-2003]	img/daily-weather.png	24,24	0,-24
58.454	-3.09	wick-airport	WICK AIRPORT (00032) caithness lat: 58.454, long: -3.09, ele: 36 [active: 1945-2017]	img/daily-weather.png	24,24	0,-24
58.542	-3.11	keiss	KEISS (00033) caithness lat: 58.542, long: -3.11, ele: 30 [active: 1972-1985]	img/daily-weather.png	24,24	0,-24
58.635	-3.064	john-o-groats	JOHN O GROATS (00034) caithness lat: 58.635, long: -3.064, ele: 30 [active: 1968-1972]	img/daily-weather.png	24,24	0,-24
58.319	-5.126	geisgeil	GEISGEIL (00035) sutherland lat: 58.319, long: -5.126, ele: 12 [active: 1978-1979]	img/daily-weather.png	24,24	0,-24
58.289	-5.072	duartmore-bridge	DUARTMORE BRIDGE (00036) sutherland lat: 58.289, long: -5.072, ele: 30 [active: 1980-2004]	img/daily-weather.png	24,24	0,-24
58.625	-5.0	cape-wrath	CAPE WRATH (00037) sutherland lat: 58.625, long: -5.0, ele: 112 [active: 1957-1997]	img/daily-weather.png	24,24	0,-24
58.311	-4.916	achfary	ACHFARY (00038) sutherland lat: 58.311, long: -4.916, ele: 46 [active: 1946-2017]	img/daily-weather.png	24,24	0,-24
57.981	-4.427	achany-no-2	ACHANY NO 2 (00039) sutherland lat: 57.981, long: -4.427, ele: 107 [active: 1977-1982]	img/daily-weather.png	24,24	0,-24
58.168	-4.727	cassley	CASSLEY (00040) sutherland lat: 58.168, long: -4.727, ele: 99 [active: 1961-2011]	img/daily-weather.png	24,24	0,-24
57.982	-4.422	achany	ACHANY (00042) sutherland lat: 57.982, long: -4.422, ele: 85 [active: 1959-1970]	img/daily-weather.png	24,24	0,-24
58.019	-4.407	lairg-no-2	LAIRG NO 2 (00043) sutherland lat: 58.019, long: -4.407, ele: 91 [active: 1971-2000]	img/daily-weather.png	24,24	0,-24
58.288	-4.442	altnaharra-no-2	ALTNAHARRA NO 2 (00044) sutherland lat: 58.288, long: -4.442, ele: 81 [active: 1993-2017]	img/daily-weather.png	24,24	0,-24
58.523	-4.273	torrisdale	TORRISDALE (00045) sutherland lat: 58.523, long: -4.273, ele: 27 [active: 1977-1990]	img/daily-weather.png	24,24	0,-24
58.52	-4.01	strathy-1	STRATHY 1 (00046) sutherland lat: 58.52, long: -4.01, ele: 38 [active: 1959-1976]	img/daily-weather.png	24,24	0,-24
58.23	-3.922	kinbrace-hatchery	KINBRACE, HATCHERY (00048) sutherland lat: 58.23, long: -3.922, ele: 103 [active: 1979-2017]	img/daily-weather.png	24,24	0,-24
58.293	-3.924	achentoul-no-2	ACHENTOUL NO 2 (00049) sutherland lat: 58.293, long: -3.924, ele: 137 [active: 1946-1971]	img/daily-weather.png	24,24	0,-24
58.561	-3.992	strathy-east	STRATHY EAST (00050) sutherland lat: 58.561, long: -3.992, ele: 68 [active: 1993-2017]	img/daily-weather.png	24,24	0,-24
58.222	-6.948	kneep	KNEEP (00051) western-isles lat: 58.222, long: -6.948, ele: 5 [active: 1983-1987]	img/daily-weather.png	24,24	0,-24
57.859	-5.633	aultbea-no-2	AULTBEA NO 2 (00052) ross-and-cromarty lat: 57.859, long: -5.633, ele: 11 [active: 1990-2017]	img/daily-weather.png	24,24	0,-24
58.213	-6.319	stornoway-airport	STORNOWAY AIRPORT (00054) western-isles lat: 58.213, long: -6.319, ele: 15 [active: 1930-2017]	img/daily-weather.png	24,24	0,-24
58.516	-6.262	butt-of-lewis	BUTT OF LEWIS (00055) western-isles lat: 58.516, long: -6.262, ele: 16 [active: 1984-1995]	img/daily-weather.png	24,24	0,-24
57.286	-5.652	balmacara-house	BALMACARA HOUSE (00056) ross-and-cromarty lat: 57.286, long: -5.652, ele: 4 [active: 1963-1978]	img/daily-weather.png	24,24	0,-24
57.579	-5.692	diabaig	DIABAIG (00058) ross-and-cromarty lat: 57.579, long: -5.692, ele: 60 [active: 1977-2010]	img/daily-weather.png	24,24	0,-24
57.551	-5.46	glen-torridon	GLEN TORRIDON (00059) ross-and-cromarty lat: 57.551, long: -5.46, ele: 55 [active: 1968-1971]	img/daily-weather.png	24,24	0,-24
57.774	-5.597	poolewe	POOLEWE (00060) ross-and-cromarty lat: 57.774, long: -5.597, ele: 6 [active: 1963-2017]	img/daily-weather.png	24,24	0,-24
57.858	-5.813	rudh-re	RUDH RE (00061) ross-and-cromarty lat: 57.858, long: -5.813, ele: 16 [active: 1965-1977]	img/daily-weather.png	24,24	0,-24
57.484	-5.32	achnashellach-lair	ACHNASHELLACH, LAIR (00062) ross-and-cromarty lat: 57.484, long: -5.32, ele: 40 [active: 1982-1984]	img/daily-weather.png	24,24	0,-24
58.068	-5.267	inverpolly	INVERPOLLY (00063) ross-and-cromarty lat: 58.068, long: -5.267, ele: 14 [active: 1963-1998]	img/daily-weather.png	24,24	0,-24
57.337	-5.653	plockton	PLOCKTON (00064) ross-and-cromarty lat: 57.337, long: -5.653, ele: 12 [active: 1979-2017]	img/daily-weather.png	24,24	0,-24
57.49	-5.275	achnashellach	ACHNASHELLACH (00065) ross-and-cromarty lat: 57.49, long: -5.275, ele: 67 [active: 1926-1982]	img/daily-weather.png	24,24	0,-24
57.613	-5.306	kinlochewe	KINLOCHEWE (00066) ross-and-cromarty lat: 57.613, long: -5.306, ele: 25 [active: 1954-2017]	img/daily-weather.png	24,24	0,-24
57.725	-4.895	loch-glascarnoch	LOCH GLASCARNOCH (00067) ross-and-cromarty lat: 57.725, long: -4.895, ele: 269 [active: 1992-2017]	img/daily-weather.png	24,24	0,-24
58.031	-5.072	knockanrock	KNOCKANROCK (00068) ross-and-cromarty lat: 58.031, long: -5.072, ele: 244 [active: 1967-1999]	img/daily-weather.png	24,24	0,-24
57.156	-5.181	cluanie-inn	CLUANIE INN (00069) ross-and-cromarty lat: 57.156, long: -5.181, ele: 223 [active: 1994-1995]	img/daily-weather.png	24,24	0,-24
57.555	-4.794	strathconon	STRATHCONON (00070) ross-and-cromarty lat: 57.555, long: -4.794, ele: 107 [active: 1961-1981]	img/daily-weather.png	24,24	0,-24
57.578	-4.607	craigdarroch	CRAIGDARROCH (00071) ross-and-cromarty lat: 57.578, long: -4.607, ele: 38 [active: 1973-1979]	img/daily-weather.png	24,24	0,-24
57.575	-4.587	contin	CONTIN (00072) ross-and-cromarty lat: 57.575, long: -4.587, ele: 29 [active: 1972-1975]	img/daily-weather.png	24,24	0,-24
57.6	-4.447	dingwall	DINGWALL (00074) ross-and-cromarty lat: 57.6, long: -4.447, ele: 7 [active: 1983-2006]	img/daily-weather.png	24,24	0,-24
57.752	-4.272	crannich	CRANNICH (00075) ross-and-cromarty lat: 57.752, long: -4.272, ele: 197 [active: 1985-1988]	img/daily-weather.png	24,24	0,-24
57.574	-4.093	fortrose	FORTROSE (00076) ross-and-cromarty lat: 57.574, long: -4.093, ele: 5 [active: 1926-1994]	img/daily-weather.png	24,24	0,-24
57.687	-4.167	invergordon-harbour	INVERGORDON HARBOUR (00077) ross-and-cromarty lat: 57.687, long: -4.167, ele: 3 [active: 1989-2001]	img/daily-weather.png	24,24	0,-24
57.703	-4.158	invergordon	INVERGORDON (00078) ross-and-cromarty lat: 57.703, long: -4.158, ele: 15 [active: 1979-1982]	img/daily-weather.png	24,24	0,-24
57.819	-3.967	tain-range	TAIN RANGE (00079) ross-and-cromarty lat: 57.819, long: -3.967, ele: 4 [active: 1994-2017]	img/daily-weather.png	24,24	0,-24
57.865	-3.776	tarbatness	TARBATNESS (00080) ross-and-cromarty lat: 57.865, long: -3.776, ele: 18 [active: 1968-1985]	img/daily-weather.png	24,24	0,-24
57.812	-8.564	st-kilda	ST KILDA (00081) western-isles lat: 57.812, long: -8.564, ele: 30 [active: 1982-1988]	img/daily-weather.png	24,24	0,-24
57.155	-7.316	lochboisdale	LOCHBOISDALE (00083) western-isles lat: 57.155, long: -7.316, ele: 6 [active: 1990-2001]	img/daily-weather.png	24,24	0,-24
57.475	-7.371	benbecula-airport	BENBECULA AIRPORT (00084) western-isles lat: 57.475, long: -7.371, ele: 6 [active: 1957-1996]	img/daily-weather.png	24,24	0,-24
57.872	-6.699	scalpay	SCALPAY (00085) western-isles lat: 57.872, long: -6.699, ele: 18 [active: 1979-1994]	img/daily-weather.png	24,24	0,-24
57.423	-6.788	neist-point	NEIST POINT (00086) inverness-shire lat: 57.423, long: -6.788, ele: 21 [active: 1983-1989]	img/daily-weather.png	24,24	0,-24
57.436	-6.769	waterstein	WATERSTEIN (00087) inverness-shire lat: 57.436, long: -6.769, ele: 83 [active: 1990-2004]	img/daily-weather.png	24,24	0,-24
57.014	-6.282	rhum-kinloch	RHUM: KINLOCH (00089) inverness-shire lat: 57.014, long: -6.282, ele: 5 [active: 1957-2010]	img/daily-weather.png	24,24	0,-24
57.467	-6.305	skye-prabost	SKYE: PRABOST (00090) inverness-shire lat: 57.467, long: -6.305, ele: 67 [active: 1959-2005]	img/daily-weather.png	24,24	0,-24
56.872	-5.67	inverailort	INVERAILORT (00092) inverness-shire lat: 56.872, long: -5.67, ele: 2 [active: 1982-2015]	img/daily-weather.png	24,24	0,-24
57.189	-5.894	heaste	HEASTE (00093) inverness-shire lat: 57.189, long: -5.894, ele: 100 [active: 1974-1984]	img/daily-weather.png	24,24	0,-24
57.239	-5.895	broadford-isle-of-skye	BROADFORD:ISLE OF SKYE (00094) inverness-shire lat: 57.239, long: -5.895, ele: 8 [active: 1988-1991]	img/daily-weather.png	24,24	0,-24
57.199	-5.63	eilanreach	EILANREACH (00095) inverness-shire lat: 57.199, long: -5.63, ele: 8 [active: 1982-2004]	img/daily-weather.png	24,24	0,-24
56.72	-5.224	onich	ONICH (00096) inverness-shire lat: 56.72, long: -5.224, ele: 15 [active: 1926-1995]	img/daily-weather.png	24,24	0,-24
56.829	-5.076	fort-william-no-4	FORT WILLIAM NO 4 (00097) inverness-shire lat: 56.829, long: -5.076, ele: 20 [active: 1984-1993]	img/daily-weather.png	24,24	0,-24
56.809	-5.125	fort-william	FORT WILLIAM (00098) inverness-shire lat: 56.809, long: -5.125, ele: 11 [active: 1959-1960]	img/daily-weather.png	24,24	0,-24
56.837	-5.078	fort-william-no-3	FORT WILLIAM NO 3 (00099) inverness-shire lat: 56.837, long: -5.078, ele: 8 [active: 1960-1971]	img/daily-weather.png	24,24	0,-24
56.839	-5.149	corpach	CORPACH (00101) inverness-shire lat: 56.839, long: -5.149, ele: 8 [active: 1952-1980]	img/daily-weather.png	24,24	0,-24
57.427	-4.497	kiltarlity	KILTARLITY (00102) inverness-shire lat: 57.427, long: -4.497, ele: 75 [active: 1985-2011]	img/daily-weather.png	24,24	0,-24
56.822	-4.969	aonach-mor	AONACH MOR (00103) inverness-shire lat: 56.822, long: -4.969, ele: 1130 [active: 1992-2017]	img/daily-weather.png	24,24	0,-24
57.044	-4.799	loch-oich	LOCH OICH (00104) inverness-shire lat: 57.044, long: -4.799, ele: 37 [active: 1975-1976]	img/daily-weather.png	24,24	0,-24
56.867	-4.708	tulloch-bridge	TULLOCH BRIDGE (00105) inverness-shire lat: 56.867, long: -4.708, ele: 249 [active: 1990-2017]	img/daily-weather.png	24,24	0,-24
57.138	-4.718	fort-augustus-no-2	FORT AUGUSTUS NO 2 (00106) inverness-shire lat: 57.138, long: -4.718, ele: 42 [active: 1967-1976]	img/daily-weather.png	24,24	0,-24
57.144	-4.677	fort-augustus	FORT AUGUSTUS (00107) inverness-shire lat: 57.144, long: -4.677, ele: 21 [active: 1914-1997]	img/daily-weather.png	24,24	0,-24
57.292	-4.828	cannich	CANNICH (00109) inverness-shire lat: 57.292, long: -4.828, ele: 107 [active: 1960-1967]	img/daily-weather.png	24,24	0,-24
57.459	-4.373	lentran	LENTRAN (00110) inverness-shire lat: 57.459, long: -4.373, ele: 146 [active: 1975-2011]	img/daily-weather.png	24,24	0,-24
56.94	-4.238	dalwhinnie-no-2	DALWHINNIE NO 2 (00111) inverness-shire lat: 56.94, long: -4.238, ele: 351 [active: 1973-2016]	img/daily-weather.png	24,24	0,-24
57.111	-3.891	lagganlia	LAGGANLIA (00112) inverness-shire lat: 57.111, long: -3.891, ele: 250 [active: 1971-1987]	img/daily-weather.png	24,24	0,-24
57.206	-3.828	aviemore	AVIEMORE (00113) inverness-shire lat: 57.206, long: -3.828, ele: 228 [active: 1982-2017]	img/daily-weather.png	24,24	0,-24
57.328	-4.486	drumnadrochit	DRUMNADROCHIT (00114) inverness-shire lat: 57.328, long: -4.486, ele: 53 [active: 1990-2011]	img/daily-weather.png	24,24	0,-24
57.486	-4.222	inverness	INVERNESS (00115) inverness-shire lat: 57.486, long: -4.222, ele: 4 [active: 1957-2014]	img/daily-weather.png	24,24	0,-24
57.542	-4.062	dalcross	DALCROSS (00116) inverness-shire lat: 57.542, long: -4.062, ele: 11 [active: 1977-1993]	img/daily-weather.png	24,24	0,-24
57.116	-3.643	cairngorm-summit	CAIRNGORM SUMMIT (00117) inverness-shire lat: 57.116, long: -3.643, ele: 1237 [active: 1992-2017]	img/daily-weather.png	24,24	0,-24
57.133	-3.669	cairngorm-chairlift	CAIRNGORM CHAIRLIFT (00118) inverness-shire lat: 57.133, long: -3.669, ele: 663 [active: 1981-2017]	img/daily-weather.png	24,24	0,-24
57.152	-3.798	achnagoichan	ACHNAGOICHAN (00121) inverness-shire lat: 57.152, long: -3.798, ele: 305 [active: 1954-1984]	img/daily-weather.png	24,24	0,-24
57.164	-3.678	glenmore-lodge	GLENMORE LODGE (00122) inverness-shire lat: 57.164, long: -3.678, ele: 337 [active: 1949-1980]	img/daily-weather.png	24,24	0,-24
57.339	-4.007	tomatin	TOMATIN (00123) inverness-shire lat: 57.339, long: -4.007, ele: 311 [active: 1973-1992]	img/daily-weather.png	24,24	0,-24
57.381	-4.056	moy	MOY (00124) inverness-shire lat: 57.381, long: -4.056, ele: 305 [active: 1969-1971]	img/daily-weather.png	24,24	0,-24
57.345	-4.003	tomatin-freeburn	TOMATIN, FREEBURN (00125) inverness-shire lat: 57.345, long: -4.003, ele: 290 [active: 1993-1999]	img/daily-weather.png	24,24	0,-24
57.587	-3.893	nairn	NAIRN (00126) nairnshire lat: 57.587, long: -3.893, ele: 8 [active: 1931-1998]	img/daily-weather.png	24,24	0,-24
57.615	-3.61	forres-no-2	FORRES NO 2 (00127) moray-in-grampian-region lat: 57.615, long: -3.61, ele: 5 [active: 1976-2002]	img/daily-weather.png	24,24	0,-24
57.334	-3.6	grantown-on-spey-grammar-school	GRANTOWN-ON-SPEY, GRAMMAR SCHOOL (00128) moray-in-highland-region lat: 57.334, long: -3.6, ele: 218 [active: 1993-2000]	img/daily-weather.png	24,24	0,-24
57.327	-3.616	grantown-on-spey-moniack	GRANTOWN-ON-SPEY, MONIACK (00129) moray-in-highland-region lat: 57.327, long: -3.616, ele: 219 [active: 1959-1961]	img/daily-weather.png	24,24	0,-24
57.335	-3.606	grantown-on-spey	GRANTOWN-ON-SPEY (00130) moray-in-highland-region lat: 57.335, long: -3.606, ele: 220 [active: 1966-2007]	img/daily-weather.png	24,24	0,-24
57.608	-3.597	forres	FORRES (00131) moray-in-grampian-region lat: 57.608, long: -3.597, ele: 50 [active: 1959-1976]	img/daily-weather.png	24,24	0,-24
57.645	-3.563	kinloss	KINLOSS (00132) moray-in-grampian-region lat: 57.645, long: -3.563, ele: 5 [active: 1957-2017]	img/daily-weather.png	24,24	0,-24
57.645	-3.379	aldroughty	ALDROUGHTY (00133) moray-in-grampian-region lat: 57.645, long: -3.379, ele: 30 [active: 1982-2000]	img/daily-weather.png	24,24	0,-24
57.532	-3.196	rothes	ROTHES (00134) moray-in-grampian-region lat: 57.532, long: -3.196, ele: 61 [active: 1982-1995]	img/daily-weather.png	24,24	0,-24
57.639	-3.298	elgin	ELGIN (00135) moray-in-grampian-region lat: 57.639, long: -3.298, ele: 28 [active: 1959-1965]	img/daily-weather.png	24,24	0,-24
57.65	-3.293	elgin-no-2	ELGIN NO 2 (00136) moray-in-grampian-region lat: 57.65, long: -3.293, ele: 15 [active: 1965-1981]	img/daily-weather.png	24,24	0,-24
57.711	-3.323	lossiemouth	LOSSIEMOUTH (00137) moray-in-grampian-region lat: 57.711, long: -3.323, ele: 7 [active: 1959-2017]	img/daily-weather.png	24,24	0,-24
57.621	-3.09	gordon-castle	GORDON CASTLE (00138) banffshire lat: 57.621, long: -3.09, ele: 32 [active: 1908-1975]	img/daily-weather.png	24,24	0,-24
57.282	-3.287	clashnoir	CLASHNOIR (00139) banffshire lat: 57.282, long: -3.287, ele: 338 [active: 1977-1981]	img/daily-weather.png	24,24	0,-24
57.354	-3.345	glenlivet	GLENLIVET (00140) banffshire lat: 57.354, long: -3.345, ele: 213 [active: 1946-2008]	img/daily-weather.png	24,24	0,-24
57.553	-2.949	keith	KEITH (00141) banffshire lat: 57.553, long: -2.949, ele: 106 [active: 1973-1995]	img/daily-weather.png	24,24	0,-24
57.661	-2.521	banff-golf-club	BANFF, GOLF CLUB (00142) banffshire lat: 57.661, long: -2.521, ele: 15 [active: 1989-2017]	img/daily-weather.png	24,24	0,-24
57.671	-2.523	banff-no-2	BANFF NO 2 (00143) banffshire lat: 57.671, long: -2.523, ele: 24 [active: 1960-1988]	img/daily-weather.png	24,24	0,-24
57.165	-3.23	corgarff-castle-lodge	CORGARFF, CASTLE LODGE (00144) aberdeenshire lat: 57.165, long: -3.23, ele: 400 [active: 1994-1999]	img/daily-weather.png	24,24	0,-24
56.879	-3.421	cairnwell	CAIRNWELL (00145) aberdeenshire lat: 56.879, long: -3.421, ele: 928 [active: 1994-2017]	img/daily-weather.png	24,24	0,-24
57.006	-3.398	braemar	BRAEMAR (00147) aberdeenshire lat: 57.006, long: -3.398, ele: 339 [active: 1917-2005]	img/daily-weather.png	24,24	0,-24
57.037	-3.22	balmoral	BALMORAL (00148) aberdeenshire lat: 57.037, long: -3.22, ele: 283 [active: 1918-2013]	img/daily-weather.png	24,24	0,-24
57.047	-3.043	ballater-field-centre	BALLATER FIELD CENTRE (00149) aberdeenshire lat: 57.047, long: -3.043, ele: 200 [active: 1989-1999]	img/daily-weather.png	24,24	0,-24
57.076	-2.841	aboyne-no-2	ABOYNE NO 2 (00150) aberdeenshire lat: 57.076, long: -2.841, ele: 140 [active: 1994-2017]	img/daily-weather.png	24,24	0,-24
57.109	-2.916	dinnet	DINNET (00151) aberdeenshire lat: 57.109, long: -2.916, ele: 177 [active: 1962-1982]	img/daily-weather.png	24,24	0,-24
57.127	-2.937	logie-coldstone	LOGIE COLDSTONE (00152) aberdeenshire lat: 57.127, long: -2.937, ele: 185 [active: 1960-1962]	img/daily-weather.png	24,24	0,-24
57.016	-2.67	finzean	FINZEAN (00153) kincardineshire lat: 57.016, long: -2.67, ele: 133 [active: 1982-1988]	img/daily-weather.png	24,24	0,-24
57.24	-2.686	alford-no-2	ALFORD NO 2 (00154) aberdeenshire lat: 57.24, long: -2.686, ele: 137 [active: 1982-1983]	img/daily-weather.png	24,24	0,-24
57.356	-2.766	leith-hall	LEITH HALL (00155) aberdeenshire lat: 57.356, long: -2.766, ele: 180 [active: 1987-2000]	img/daily-weather.png	24,24	0,-24
57.379	-2.795	gartly	GARTLY (00156) aberdeenshire lat: 57.379, long: -2.795, ele: 146 [active: 1968-1986]	img/daily-weather.png	24,24	0,-24
57.45	-2.786	huntly	HUNTLY (00157) aberdeenshire lat: 57.45, long: -2.786, ele: 122 [active: 1959-1966]	img/daily-weather.png	24,24	0,-24
57.274	-2.368	inverurie-no-2	INVERURIE NO 2 (00158) aberdeenshire lat: 57.274, long: -2.368, ele: 54 [active: 1967-1992]	img/daily-weather.png	24,24	0,-24
57.443	-2.39	fyvie-castle	FYVIE CASTLE (00159) aberdeenshire lat: 57.443, long: -2.39, ele: 55 [active: 1946-2011]	img/daily-weather.png	24,24	0,-24
57.187	-2.215	craibstone	CRAIBSTONE (00160) aberdeenshire lat: 57.187, long: -2.215, ele: 102 [active: 1931-2011]	img/daily-weather.png	24,24	0,-24
57.205	-2.205	dyce	DYCE (00161) aberdeenshire lat: 57.205, long: -2.205, ele: 65 [active: 1957-2017]	img/daily-weather.png	24,24	0,-24
57.128	-2.14	aberdeen-mannofield-resr	ABERDEEN, MANNOFIELD RESR (00163) aberdeenshire lat: 57.128, long: -2.14, ele: 52 [active: 1959-2008]	img/daily-weather.png	24,24	0,-24
57.165	-2.129	hilton-aberdeenshire	HILTON (ABERDEENSHIRE) (00164) aberdeenshire lat: 57.165, long: -2.129, ele: 70 [active: 1963-1965]	img/daily-weather.png	24,24	0,-24
57.299	-2.158	udny	UDNY (00165) aberdeenshire lat: 57.299, long: -2.158, ele: 107 [active: 1960-1967]	img/daily-weather.png	24,24	0,-24
57.697	-2.003	fraserburgh	FRASERBURGH (00166) aberdeenshire lat: 57.697, long: -2.003, ele: 18 [active: 1967-1987]	img/daily-weather.png	24,24	0,-24
57.325	-2.003	culterty-no-2	CULTERTY NO 2 (00167) aberdeenshire lat: 57.325, long: -2.003, ele: 3 [active: 1976-1999]	img/daily-weather.png	24,24	0,-24
57.506	-1.844	forehill	FOREHILL (00168) aberdeenshire lat: 57.506, long: -1.844, ele: 41 [active: 1977-2010]	img/daily-weather.png	24,24	0,-24
57.614	-1.846	rattray-head	RATTRAY HEAD (00169) aberdeenshire lat: 57.614, long: -1.846, ele: 26 [active: 1957-1967]	img/daily-weather.png	24,24	0,-24
57.06	-2.542	inchmarlo	INCHMARLO (00173) kincardineshire lat: 57.06, long: -2.542, ele: 80 [active: 1990-2005]	img/daily-weather.png	24,24	0,-24
57.015	-2.502	strachan	STRACHAN (00174) kincardineshire lat: 57.015, long: -2.502, ele: 120 [active: 1961-1973]	img/daily-weather.png	24,24	0,-24
57.053	-2.509	banchory	BANCHORY (00175) kincardineshire lat: 57.053, long: -2.509, ele: 94 [active: 1967-1982]	img/daily-weather.png	24,24	0,-24
57.032	-2.404	durris	DURRIS (00176) kincardineshire lat: 57.032, long: -2.404, ele: 107 [active: 1988-2017]	img/daily-weather.png	24,24	0,-24
56.852	-2.266	inverbervie-no-2	INVERBERVIE NO 2 (00177) kincardineshire lat: 56.852, long: -2.266, ele: 134 [active: 1992-2017]	img/daily-weather.png	24,24	0,-24
56.969	-2.207	stonehaven	STONEHAVEN (00178) kincardineshire lat: 56.969, long: -2.207, ele: 4 [active: 1959-1985]	img/daily-weather.png	24,24	0,-24
56.946	-2.212	stonehaven-no-2	STONEHAVEN NO 2 (00179) kincardineshire lat: 56.946, long: -2.212, ele: 85 [active: 1985-2000]	img/daily-weather.png	24,24	0,-24
57.018	-2.17	muchalls	MUCHALLS (00180) kincardineshire lat: 57.018, long: -2.17, ele: 64 [active: 1959-1965]	img/daily-weather.png	24,24	0,-24
56.457	-3.073	mylnefield	MYLNEFIELD (00181) angus lat: 56.457, long: -3.073, ele: 31 [active: 1954-2017]	img/daily-weather.png	24,24	0,-24
56.538	-3.063	auchterhouse	AUCHTERHOUSE (00182) angus lat: 56.538, long: -3.063, ele: 232 [active: 1959-1964]	img/daily-weather.png	24,24	0,-24
56.47	-2.94	dundee	DUNDEE (00183) angus lat: 56.47, long: -2.94, ele: 45 [active: 1959-1996]	img/daily-weather.png	24,24	0,-24
56.625	-3.0	glamis-castle-no-2	GLAMIS CASTLE NO 2 (00184) angus lat: 56.625, long: -3.0, ele: 62 [active: 1959-1973]	img/daily-weather.png	24,24	0,-24
56.683	-2.929	forfar-no-3	FORFAR NO 3 (00185) angus lat: 56.683, long: -2.929, ele: 91 [active: 1985-1994]	img/daily-weather.png	24,24	0,-24
56.657	-2.775	forfar-no-2	FORFAR NO 2 (00186) angus lat: 56.657, long: -2.775, ele: 67 [active: 1981-1983]	img/daily-weather.png	24,24	0,-24
56.906	-2.907	whitehillocks	WHITEHILLOCKS (00187) angus lat: 56.906, long: -2.907, ele: 258 [active: 1962-2013]	img/daily-weather.png	24,24	0,-24
56.468	-2.75	buddon-ness	BUDDON NESS (00188) angus lat: 56.468, long: -2.75, ele: 5 [active: 1960-1973]	img/daily-weather.png	24,24	0,-24
56.507	-2.725	carnoustie-no-2	CARNOUSTIE NO 2 (00189) angus lat: 56.507, long: -2.725, ele: 27 [active: 1959-1977]	img/daily-weather.png	24,24	0,-24
56.561	-2.573	arbroath	ARBROATH (00191) angus lat: 56.561, long: -2.573, ele: 29 [active: 1914-1994]	img/daily-weather.png	24,24	0,-24
56.681	-2.452	usan	USAN (00192) angus lat: 56.681, long: -2.452, ele: 47 [active: 1965-1979]	img/daily-weather.png	24,24	0,-24
56.746	-2.481	montrose	MONTROSE (00193) angus lat: 56.746, long: -2.481, ele: 55 [active: 1960-1992]	img/daily-weather.png	24,24	0,-24
56.419	-4.659	crianlarich	CRIANLARICH (00194) perthshire-in-central-region lat: 56.419, long: -4.659, ele: 174 [active: 1975-1975]	img/daily-weather.png	24,24	0,-24
56.419	-4.661	tyndrum-no-3	TYNDRUM NO 3 (00195) perthshire-in-central-region lat: 56.419, long: -4.661, ele: 168 [active: 1990-2011]	img/daily-weather.png	24,24	0,-24
56.693	-4.401	loch-rannoch-power-house	LOCH RANNOCH POWER HOUSE (00196) perthshire-in-tayside-region lat: 56.693, long: -4.401, ele: 206 [active: 1967-2002]	img/daily-weather.png	24,24	0,-24
56.173	-4.369	aberfoyle	ABERFOYLE (00197) perthshire-in-central-region lat: 56.173, long: -4.369, ele: 28 [active: 1968-2001]	img/daily-weather.png	24,24	0,-24
54.829	-2.255	blacklot	BLACKLOT (16582) northumberland lat: 54.829, long: -2.255, ele: 415 [active: 1995-1995]	img/daily-weather.png	24,24	0,-24
56.23	-4.263	loch-venachar	LOCH VENACHAR (00199) perthshire-in-central-region lat: 56.23, long: -4.263, ele: 84 [active: 1954-2006]	img/daily-weather.png	24,24	0,-24
56.321	-4.328	strathyre	STRATHYRE (00200) perthshire-in-central-region lat: 56.321, long: -4.328, ele: 130 [active: 1959-1967]	img/daily-weather.png	24,24	0,-24
56.355	-4.397	balquhidder-no-2	BALQUHIDDER NO 2 (00201) perthshire-in-central-region lat: 56.355, long: -4.397, ele: 136 [active: 1951-1992]	img/daily-weather.png	24,24	0,-24
56.484	-4.363	killin	KILLIN (00202) perthshire-in-central-region lat: 56.484, long: -4.363, ele: 116 [active: 1984-1989]	img/daily-weather.png	24,24	0,-24
56.242	-4.217	callander	CALLANDER (00203) perthshire-in-central-region lat: 56.242, long: -4.217, ele: 70 [active: 1960-1964]	img/daily-weather.png	24,24	0,-24
56.245	-4.206	callander-no-2	CALLANDER NO 2 (00204) perthshire-in-central-region lat: 56.245, long: -4.206, ele: 107 [active: 1968-1981]	img/daily-weather.png	24,24	0,-24
56.528	-4.112	ardtalnaig	ARDTALNAIG (00205) perthshire-in-tayside-region lat: 56.528, long: -4.112, ele: 130 [active: 1954-2017]	img/daily-weather.png	24,24	0,-24
56.189	-3.977	dunblane-secondary-school	DUNBLANE SECONDARY SCHOOL (00206) perthshire-in-central-region lat: 56.189, long: -3.977, ele: 80 [active: 1973-1974]	img/daily-weather.png	24,24	0,-24
56.338	-3.877	drummond-castle	DRUMMOND CASTLE (00208) perthshire-in-tayside-region lat: 56.338, long: -3.877, ele: 113 [active: 1969-2017]	img/daily-weather.png	24,24	0,-24
56.706	-4.011	tummel-bridge	TUMMEL BRIDGE (00209) perthshire-in-tayside-region lat: 56.706, long: -4.011, ele: 148 [active: 1984-1992]	img/daily-weather.png	24,24	0,-24
56.281	-3.749	gleneagles	GLENEAGLES (00211) perthshire-in-tayside-region lat: 56.281, long: -3.749, ele: 152 [active: 1964-1976]	img/daily-weather.png	24,24	0,-24
56.326	-3.729	strathallan-airfield	STRATHALLAN AIRFIELD (00212) perthshire-in-tayside-region lat: 56.326, long: -3.729, ele: 35 [active: 1994-2017]	img/daily-weather.png	24,24	0,-24
56.709	-3.725	pitlochry	PITLOCHRY (00213) perthshire-in-tayside-region lat: 56.709, long: -3.725, ele: 144 [active: 1959-1975]	img/daily-weather.png	24,24	0,-24
56.718	-3.77	faskally	FASKALLY (00214) perthshire-in-tayside-region lat: 56.718, long: -3.77, ele: 94 [active: 1953-2017]	img/daily-weather.png	24,24	0,-24
56.901	-3.629	fealar-lodge	FEALAR LODGE (00215) perthshire-in-tayside-region lat: 56.901, long: -3.629, ele: 560 [active: 1987-1996]	img/daily-weather.png	24,24	0,-24
56.308	-3.574	dunning	DUNNING (00216) perthshire-in-tayside-region lat: 56.308, long: -3.574, ele: 76 [active: 1960-1964]	img/daily-weather.png	24,24	0,-24
56.412	-3.478	perth-crematorium	PERTH CREMATORIUM (00217) perthshire-in-tayside-region lat: 56.412, long: -3.478, ele: 30 [active: 1980-1982]	img/daily-weather.png	24,24	0,-24
56.735	-3.471	ashintully-castle	ASHINTULLY CASTLE (00218) perthshire-in-tayside-region lat: 56.735, long: -3.471, ele: 341 [active: 1967-1976]	img/daily-weather.png	24,24	0,-24
56.748	-3.547	kindrogan	KINDROGAN (00219) perthshire-in-tayside-region lat: 56.748, long: -3.547, ele: 259 [active: 1972-2017]	img/daily-weather.png	24,24	0,-24
56.35	-3.474	strathallan-school	STRATHALLAN SCHOOL (00220) perthshire-in-tayside-region lat: 56.35, long: -3.474, ele: 41 [active: 1968-2007]	img/daily-weather.png	24,24	0,-24
56.399	-3.458	perth	PERTH (00221) perthshire-in-tayside-region lat: 56.399, long: -3.458, ele: 23 [active: 1959-1979]	img/daily-weather.png	24,24	0,-24
56.416	-3.462	inveralmond	INVERALMOND (00222) perthshire-in-tayside-region lat: 56.416, long: -3.462, ele: 8 [active: 1963-1966]	img/daily-weather.png	24,24	0,-24
56.437	-3.372	perth-aerodrome	PERTH AERODROME (00223) perthshire-in-tayside-region lat: 56.437, long: -3.372, ele: 118 [active: 1982-2000]	img/daily-weather.png	24,24	0,-24
56.579	-3.345	blairgowrie	BLAIRGOWRIE (00224) perthshire-in-tayside-region lat: 56.579, long: -3.345, ele: 70 [active: 1960-1976]	img/daily-weather.png	24,24	0,-24
56.799	-3.421	glenshee-lodge	GLENSHEE LODGE (00225) perthshire-in-tayside-region lat: 56.799, long: -3.421, ele: 335 [active: 1954-1967]	img/daily-weather.png	24,24	0,-24
56.214	-3.413	kinross	KINROSS (00226) kinross-shire lat: 56.214, long: -3.413, ele: 116 [active: 1967-2017]	img/daily-weather.png	24,24	0,-24
56.048	-3.419	pitreavie-no-2	PITREAVIE NO 2 (00227) fife lat: 56.048, long: -3.419, ele: 40 [active: 1961-1985]	img/daily-weather.png	24,24	0,-24
56.043	-3.32	braefoot-bay	BRAEFOOT BAY (00228) fife lat: 56.043, long: -3.32, ele: 43 [active: 1986-2008]	img/daily-weather.png	24,24	0,-24
56.108	-3.179	kirkcaldy	KIRKCALDY (00230) fife lat: 56.108, long: -3.179, ele: 32 [active: 1959-1975]	img/daily-weather.png	24,24	0,-24
56.197	-3.21	glenrothes-glenwood	GLENROTHES, GLENWOOD (00231) fife lat: 56.197, long: -3.21, ele: 117 [active: 1972-1977]	img/daily-weather.png	24,24	0,-24
56.319	-3.032	cupar-elmwood-ag-college	CUPAR, ELMWOOD AG COLLEGE (00232) fife lat: 56.319, long: -3.032, ele: 42 [active: 1973-2017]	img/daily-weather.png	24,24	0,-24
56.325	-2.991	cupar-sugar-factory	CUPAR, SUGAR FACTORY (00233) fife lat: 56.325, long: -2.991, ele: 25 [active: 1959-1972]	img/daily-weather.png	24,24	0,-24
56.21	-2.958	lundin-links	LUNDIN LINKS (00234) fife lat: 56.21, long: -2.958, ele: 9 [active: 1959-1962]	img/daily-weather.png	24,24	0,-24
56.377	-2.862	leuchars	LEUCHARS (00235) fife lat: 56.377, long: -2.862, ele: 10 [active: 1921-2017]	img/daily-weather.png	24,24	0,-24
56.239	-2.796	belliston	BELLISTON (00237) fife lat: 56.239, long: -2.796, ele: 82 [active: 1972-2016]	img/daily-weather.png	24,24	0,-24
56.34	-2.806	st-andrews	ST ANDREWS (00238) fife lat: 56.34, long: -2.806, ele: 18 [active: 1959-1984]	img/daily-weather.png	24,24	0,-24
56.279	-2.586	fife-ness	FIFE NESS (00239) fife lat: 56.279, long: -2.586, ele: 12 [active: 1984-2007]	img/daily-weather.png	24,24	0,-24
55.872	-3.589	blackburn-s-wks	BLACKBURN S WKS (00240) west-lothian-in-lothian-region lat: 55.872, long: -3.589, ele: 131 [active: 1971-1977]	img/daily-weather.png	24,24	0,-24
55.877	-3.544	livingston-no-2	LIVINGSTON NO 2 (00241) west-lothian-in-lothian-region lat: 55.877, long: -3.544, ele: 125 [active: 1969-1995]	img/daily-weather.png	24,24	0,-24
55.871	-3.365	balerno	BALERNO (00244) midlothian-in-lothian-region lat: 55.871, long: -3.365, ele: 213 [active: 1959-1965]	img/daily-weather.png	24,24	0,-24
55.892	-3.516	midcalder	MIDCALDER (00245) midlothian-in-lothian-region lat: 55.892, long: -3.516, ele: 122 [active: 1959-1961]	img/daily-weather.png	24,24	0,-24
55.951	-3.348	turnhouse	TURNHOUSE (00246) midlothian-in-lothian-region lat: 55.951, long: -3.348, ele: 35 [active: 1957-1999]	img/daily-weather.png	24,24	0,-24
55.948	-3.307	edinburgh-east-craigs	EDINBURGH, EAST CRAIGS (00247) midlothian-in-lothian-region lat: 55.948, long: -3.307, ele: 61 [active: 1959-2005]	img/daily-weather.png	24,24	0,-24
55.968	-3.285	davidsons-mains	DAVIDSONS MAINS (00248) midlothian-in-lothian-region lat: 55.968, long: -3.285, ele: 61 [active: 1959-1970]	img/daily-weather.png	24,24	0,-24
55.823	-3.228	penicuik	PENICUIK (00249) midlothian-in-lothian-region lat: 55.823, long: -3.228, ele: 185 [active: 1946-2017]	img/daily-weather.png	24,24	0,-24
55.86	-3.208	bush-house	BUSH HOUSE (00250) midlothian-in-lothian-region lat: 55.86, long: -3.208, ele: 184 [active: 1959-1999]	img/daily-weather.png	24,24	0,-24
55.923	-3.191	edinburgh-blackford-hill	EDINBURGH, BLACKFORD HILL (00251) midlothian-in-lothian-region lat: 55.923, long: -3.191, ele: 134 [active: 1901-2003]	img/daily-weather.png	24,24	0,-24
55.922	-3.165	liberton	LIBERTON (00252) midlothian-in-lothian-region lat: 55.922, long: -3.165, ele: 58 [active: 1959-1963]	img/daily-weather.png	24,24	0,-24
55.966	-3.207	edinburgh-royal-botanic-garden-no-2	EDINBURGH, ROYAL BOTANIC GARDEN NO 2 (00253) midlothian-in-lothian-region lat: 55.966, long: -3.207, ele: 23 [active: 1939-2014]	img/daily-weather.png	24,24	0,-24
55.813	-3.01	middleton-camp	MIDDLETON CAMP (00254) midlothian-in-lothian-region lat: 55.813, long: -3.01, ele: 225 [active: 1974-1974]	img/daily-weather.png	24,24	0,-24
55.86	-3.163	roslin	ROSLIN (00255) midlothian-in-lothian-region lat: 55.86, long: -3.163, ele: 152 [active: 1972-1979]	img/daily-weather.png	24,24	0,-24
55.885	-2.94	pathhead	PATHHEAD (00257) east-lothian lat: 55.885, long: -2.94, ele: 131 [active: 1975-1989]	img/daily-weather.png	24,24	0,-24
55.953	-2.781	haddington-no-2	HADDINGTON NO 2 (00258) east-lothian lat: 55.953, long: -2.781, ele: 49 [active: 1972-1972]	img/daily-weather.png	24,24	0,-24
56.051	-2.724	north-berwick-no-2	NORTH BERWICK NO 2 (00259) east-lothian lat: 56.051, long: -2.724, ele: 46 [active: 1963-1963]	img/daily-weather.png	24,24	0,-24
56.058	-2.716	north-berwick	NORTH BERWICK (00260) east-lothian lat: 56.058, long: -2.716, ele: 16 [active: 1926-1963]	img/daily-weather.png	24,24	0,-24
55.921	-2.652	nunraw-abbey	NUNRAW ABBEY (00262) east-lothian lat: 55.921, long: -2.652, ele: 197 [active: 1971-2017]	img/daily-weather.png	24,24	0,-24
55.96	-2.751	haddington	HADDINGTON (00263) east-lothian lat: 55.96, long: -2.751, ele: 41 [active: 1982-2001]	img/daily-weather.png	24,24	0,-24
56.004	-2.528	dunbar	DUNBAR (00264) east-lothian lat: 56.004, long: -2.528, ele: 23 [active: 1930-2017]	img/daily-weather.png	24,24	0,-24
55.581	-2.562	mertoun	MERTOUN (00265) berwickshire lat: 55.581, long: -2.562, ele: 69 [active: 1961-1969]	img/daily-weather.png	24,24	0,-24
55.73	-2.764	lauder	LAUDER (00266) berwickshire lat: 55.73, long: -2.764, ele: 183 [active: 1960-1971]	img/daily-weather.png	24,24	0,-24
55.737	-2.662	blythe	BLYTHE (00267) berwickshire lat: 55.737, long: -2.662, ele: 262 [active: 1973-2014]	img/daily-weather.png	24,24	0,-24
55.709	-2.385	charterhall	CHARTERHALL (00268) berwickshire lat: 55.709, long: -2.385, ele: 112 [active: 1992-2017]	img/daily-weather.png	24,24	0,-24
55.728	-2.411	marchmont	MARCHMONT (00269) berwickshire lat: 55.728, long: -2.411, ele: 152 [active: 1914-1980]	img/daily-weather.png	24,24	0,-24
55.823	-2.447	whitchester	WHITCHESTER (00270) berwickshire lat: 55.823, long: -2.447, ele: 255 [active: 1946-1989]	img/daily-weather.png	24,24	0,-24
55.701	-2.339	leithholm	LEITHHOLM (00271) berwickshire lat: 55.701, long: -2.339, ele: 64 [active: 1971-1978]	img/daily-weather.png	24,24	0,-24
55.917	-2.139	st-abbs-head	ST ABBS HEAD (00272) berwickshire lat: 55.917, long: -2.139, ele: 75 [active: 1957-1992]	img/daily-weather.png	24,24	0,-24
55.552	-3.392	stanhope-farm	STANHOPE FARM (00273) peebleshire lat: 55.552, long: -3.392, ele: 226 [active: 1957-1990]	img/daily-weather.png	24,24	0,-24
55.703	-3.368	blyth-bridge	BLYTH BRIDGE (00274) peebleshire lat: 55.703, long: -3.368, ele: 253 [active: 1959-2006]	img/daily-weather.png	24,24	0,-24
55.754	-3.356	west-linton	WEST LINTON (00275) peebleshire lat: 55.754, long: -3.356, ele: 244 [active: 1959-1995]	img/daily-weather.png	24,24	0,-24
55.642	-3.196	peebles	PEEBLES (00276) peebleshire lat: 55.642, long: -3.196, ele: 197 [active: 1959-1961]	img/daily-weather.png	24,24	0,-24
55.646	-3.139	glentress	GLENTRESS (00278) peebleshire lat: 55.646, long: -3.139, ele: 165 [active: 1959-1998]	img/daily-weather.png	24,24	0,-24
55.541	-2.906	bowhill	BOWHILL (00279) selkirkshire lat: 55.541, long: -2.906, ele: 168 [active: 1959-2017]	img/daily-weather.png	24,24	0,-24
55.621	-2.828	galashiels	GALASHIELS (00281) selkirkshire lat: 55.621, long: -2.828, ele: 198 [active: 1967-2010]	img/daily-weather.png	24,24	0,-24
55.38	-2.653	wauchope	WAUCHOPE (00282) roxburghshire lat: 55.38, long: -2.653, ele: 155 [active: 1959-1976]	img/daily-weather.png	24,24	0,-24
55.396	-2.654	bonchester-bridge	BONCHESTER BRIDGE (00283) roxburghshire lat: 55.396, long: -2.654, ele: 146 [active: 1976-1983]	img/daily-weather.png	24,24	0,-24
55.567	-2.637	greycrook	GREYCROOK (00284) roxburghshire lat: 55.567, long: -2.637, ele: 76 [active: 1972-2003]	img/daily-weather.png	24,24	0,-24
55.358	-2.519	carterhouse	CARTERHOUSE (00285) roxburghshire lat: 55.358, long: -2.519, ele: 308 [active: 1989-2011]	img/daily-weather.png	24,24	0,-24
55.603	-2.468	floors-castle	FLOORS CASTLE (00286) roxburghshire lat: 55.603, long: -2.468, ele: 59 [active: 1952-2017]	img/daily-weather.png	24,24	0,-24
55.604	-2.421	kelso	KELSO (00287) roxburghshire lat: 55.604, long: -2.421, ele: 34 [active: 1966-2003]	img/daily-weather.png	24,24	0,-24
55.475	-2.247	sourhope	SOURHOPE (00288) roxburghshire lat: 55.475, long: -2.247, ele: 221 [active: 1954-2004]	img/daily-weather.png	24,24	0,-24
55.234	-2.58	kielder-castle	KIELDER CASTLE (00289) northumberland lat: 55.234, long: -2.58, ele: 201 [active: 1959-2013]	img/daily-weather.png	24,24	0,-24
55.075	-2.393	wark	WARK (00290) northumberland lat: 55.075, long: -2.393, ele: 219 [active: 1993-1997]	img/daily-weather.png	24,24	0,-24
55.214	-2.303	bellingham	BELLINGHAM (00292) northumberland lat: 55.214, long: -2.303, ele: 258 [active: 1959-1964]	img/daily-weather.png	24,24	0,-24
55.253	-2.263	redesdale	REDESDALE (00293) northumberland lat: 55.253, long: -2.263, ele: 235 [active: 1970-2006]	img/daily-weather.png	24,24	0,-24
54.825	-2.26	high-hayrake	HIGH HAYRAKE (00295) northumberland lat: 54.825, long: -2.26, ele: 400 [active: 1992-1995]	img/daily-weather.png	24,24	0,-24
54.976	-2.253	haydon-bridge-no-2	HAYDON BRIDGE NO 2 (00296) northumberland lat: 54.976, long: -2.253, ele: 82 [active: 1959-2000]	img/daily-weather.png	24,24	0,-24
54.98	-2.02	corbridge	CORBRIDGE (00297) northumberland lat: 54.98, long: -2.02, ele: 49 [active: 1961-1971]	img/daily-weather.png	24,24	0,-24
55.575	-2.117	lanton	LANTON (00298) northumberland lat: 55.575, long: -2.117, ele: 59 [active: 1993-1996]	img/daily-weather.png	24,24	0,-24
55.644	-2.103	lethamhill-farm	LETHAMHILL FARM (00299) northumberland lat: 55.644, long: -2.103, ele: 76 [active: 1976-1977]	img/daily-weather.png	24,24	0,-24
55.154	-1.945	wallington	WALLINGTON (00300) northumberland lat: 55.154, long: -1.945, ele: 150 [active: 1994-2017]	img/daily-weather.png	24,24	0,-24
55.71	-1.959	cheswick	CHESWICK (00301) northumberland lat: 55.71, long: -1.959, ele: 30 [active: 1993-2001]	img/daily-weather.png	24,24	0,-24
55.769	-1.998	berwick-on-tweed	BERWICK-ON-TWEED (00302) northumberland lat: 55.769, long: -1.998, ele: 23 [active: 1959-1974]	img/daily-weather.png	24,24	0,-24
55.754	-2.033	berwick-upon-tweed	BERWICK-UPON-TWEED (00303) northumberland lat: 55.754, long: -2.033, ele: 42 [active: 1994-1997]	img/daily-weather.png	24,24	0,-24
55.301	-1.806	longframlington	LONGFRAMLINGTON (00304) northumberland lat: 55.301, long: -1.806, ele: 158 [active: 1990-2000]	img/daily-weather.png	24,24	0,-24
55.776	-2.005	berwick-grammar-school	BERWICK GRAMMAR SCHOOL (00305) northumberland lat: 55.776, long: -2.005, ele: 41 [active: 1975-1975]	img/daily-weather.png	24,24	0,-24
54.977	-1.598	newcastle-weather-centre	NEWCASTLE WEATHER CENTRE (00307) tyne-and-wear lat: 54.977, long: -1.598, ele: 52 [active: 1974-2001]	img/daily-weather.png	24,24	0,-24
55.213	-1.688	morpeth-cockle-park	MORPETH, COCKLE PARK (00310) northumberland lat: 55.213, long: -1.688, ele: 95 [active: 1897-2017]	img/daily-weather.png	24,24	0,-24
55.018	-1.417	tynemouth	TYNEMOUTH (00313) tyne-and-wear lat: 55.018, long: -1.417, ele: 33 [active: 1957-2001]	img/daily-weather.png	24,24	0,-24
55.421	-1.601	boulmer	BOULMER (00315) northumberland lat: 55.421, long: -1.601, ele: 23 [active: 1975-2017]	img/daily-weather.png	24,24	0,-24
55.583	-1.654	seahouses	SEAHOUSES (00316) northumberland lat: 55.583, long: -1.654, ele: 11 [active: 1963-1979]	img/daily-weather.png	24,24	0,-24
54.741	-2.133	westgate-no-2	WESTGATE NO 2 (00318) durham lat: 54.741, long: -2.133, ele: 333 [active: 1993-2013]	img/daily-weather.png	24,24	0,-24
54.821	-2.09	boltshope-park	BOLTSHOPE PARK (00319) durham lat: 54.821, long: -2.09, ele: 434 [active: 1994-2007]	img/daily-weather.png	24,24	0,-24
54.899	-1.808	hamsterley-no-2	HAMSTERLEY NO 2 (00320) tyne-and-wear lat: 54.899, long: -1.808, ele: 130 [active: 1993-1995]	img/daily-weather.png	24,24	0,-24
54.655	-1.74	low-etherley	LOW ETHERLEY (00322) durham lat: 54.655, long: -1.74, ele: 162 [active: 1974-1995]	img/daily-weather.png	24,24	0,-24
54.787	-1.661	ushaw-college	USHAW COLLEGE (00323) durham lat: 54.787, long: -1.661, ele: 181 [active: 1959-1971]	img/daily-weather.png	24,24	0,-24
54.765	-1.562	houghall	HOUGHALL (00324) durham lat: 54.765, long: -1.562, ele: 37 [active: 1960-1977]	img/daily-weather.png	24,24	0,-24
54.759	-1.571	houghall-no-2	HOUGHALL NO 2 (00325) durham lat: 54.759, long: -1.571, ele: 49 [active: 1959-1960]	img/daily-weather.png	24,24	0,-24
54.768	-1.586	durham	DURHAM (00326) durham lat: 54.768, long: -1.586, ele: 102 [active: 1890-2017]	img/daily-weather.png	24,24	0,-24
54.938	-1.583	gateshead	GATESHEAD (00327) tyne-and-wear lat: 54.938, long: -1.583, ele: 155 [active: 1959-1966]	img/daily-weather.png	24,24	0,-24
54.895	-1.49	washington	WASHINGTON (00329) tyne-and-wear lat: 54.895, long: -1.49, ele: 29 [active: 1973-1981]	img/daily-weather.png	24,24	0,-24
55.003	-1.418	south-shields	SOUTH SHIELDS (00330) tyne-and-wear lat: 55.003, long: -1.418, ele: 5 [active: 1985-2003]	img/daily-weather.png	24,24	0,-24
54.56	-1.372	hartburn-grange	HARTBURN GRANGE (00331) cleveland lat: 54.56, long: -1.372, ele: 31 [active: 1969-1990]	img/daily-weather.png	24,24	0,-24
54.904	-1.395	sunderland-university	SUNDERLAND UNIVERSITY (00332) tyne-and-wear lat: 54.904, long: -1.395, ele: 70 [active: 1989-2003]	img/daily-weather.png	24,24	0,-24
54.947	-1.38	whitburn	WHITBURN (00333) tyne-and-wear lat: 54.947, long: -1.38, ele: 28 [active: 1964-1966]	img/daily-weather.png	24,24	0,-24
54.687	-1.209	hartlepool	HARTLEPOOL (00336) cleveland lat: 54.687, long: -1.209, ele: 9 [active: 1959-1985]	img/daily-weather.png	24,24	0,-24
54.275	-2.263	snaizeholme	SNAIZEHOLME (00337) north-yorkshire lat: 54.275, long: -2.263, ele: 290 [active: 1974-1981]	img/daily-weather.png	24,24	0,-24
54.307	-2.195	hawes	HAWES (00338) north-yorkshire lat: 54.307, long: -2.195, ele: 227 [active: 1959-1960]	img/daily-weather.png	24,24	0,-24
54.308	-2.101	bainbridge	BAINBRIDGE (00339) north-yorkshire lat: 54.308, long: -2.101, ele: 210 [active: 1991-2011]	img/daily-weather.png	24,24	0,-24
54.509	-2.051	bowes-no-2	BOWES NO 2 (00340) durham lat: 54.509, long: -2.051, ele: 292 [active: 1994-1996]	img/daily-weather.png	24,24	0,-24
54.521	-1.818	wycliffe-hall	WYCLIFFE HALL (00341) north-yorkshire lat: 54.521, long: -1.818, ele: 120 [active: 1989-2000]	img/daily-weather.png	24,24	0,-24
54.135	-1.415	dishforth-airfield	DISHFORTH AIRFIELD (00342) north-yorkshire lat: 54.135, long: -1.415, ele: 33 [active: 1957-2016]	img/daily-weather.png	24,24	0,-24
54.045	-1.251	linton-on-ouse	LINTON ON OUSE (00346) north-yorkshire lat: 54.045, long: -1.251, ele: 14 [active: 1984-2017]	img/daily-weather.png	24,24	0,-24
54.428	-1.218	carlton-in-cleveland	CARLTON-IN-CLEVELAND (00347) cleveland lat: 54.428, long: -1.218, ele: 103 [active: 1991-2017]	img/daily-weather.png	24,24	0,-24
54.53	-1.201	marton	MARTON (00348) cleveland lat: 54.53, long: -1.201, ele: 46 [active: 1969-1971]	img/daily-weather.png	24,24	0,-24
53.953	-1.04	york-heslington	YORK, HESLINGTON (00349) north-yorkshire lat: 53.953, long: -1.04, ele: 19 [active: 1964-1980]	img/daily-weather.png	24,24	0,-24
53.962	-1.09	york	YORK (00350) north-yorkshire lat: 53.962, long: -1.09, ele: 17 [active: 1958-1964]	img/daily-weather.png	24,24	0,-24
54.202	-1.085	ampleforth	AMPLEFORTH (00351) north-yorkshire lat: 54.202, long: -1.085, ele: 95 [active: 1923-1971]	img/daily-weather.png	24,24	0,-24
54.616	-1.074	redcar	REDCAR (00353) cleveland lat: 54.616, long: -1.074, ele: 8 [active: 1959-1970]	img/daily-weather.png	24,24	0,-24
54.198	-0.792	kirby-misperton	KIRBY MISPERTON (00354) north-yorkshire lat: 54.198, long: -0.792, ele: 22 [active: 1994-2004]	img/daily-weather.png	24,24	0,-24
54.247	-0.781	pickering	PICKERING (00356) north-yorkshire lat: 54.247, long: -0.781, ele: 44 [active: 1962-1984]	img/daily-weather.png	24,24	0,-24
54.281	-0.568	wykeham-forest	WYKEHAM FOREST (00357) north-yorkshire lat: 54.281, long: -0.568, ele: 214 [active: 1986-1992]	img/daily-weather.png	24,24	0,-24
54.359	-0.672	fylingdales	FYLINGDALES (00358) north-yorkshire lat: 54.359, long: -0.672, ele: 262 [active: 1984-2017]	img/daily-weather.png	24,24	0,-24
54.481	-0.626	whitby	WHITBY (00359) north-yorkshire lat: 54.481, long: -0.626, ele: 41 [active: 1976-2017]	img/daily-weather.png	24,24	0,-24
54.273	-0.423	scarborough	SCARBOROUGH (00360) north-yorkshire lat: 54.273, long: -0.423, ele: 110 [active: 1987-2011]	img/daily-weather.png	24,24	0,-24
54.281	-0.398	scarborough-town-hall	SCARBOROUGH, TOWN HALL (00361) north-yorkshire lat: 54.281, long: -0.398, ele: 36 [active: 1930-1971]	img/daily-weather.png	24,24	0,-24
54.28	-0.418	scarborough-manor-road-nuseries	SCARBOROUGH, MANOR ROAD NUSERIES (00362) north-yorkshire lat: 54.28, long: -0.418, ele: 52 [active: 1971-1986]	img/daily-weather.png	24,24	0,-24
54.338	-0.53	silpho-moor	SILPHO MOOR (00363) north-yorkshire lat: 54.338, long: -0.53, ele: 203 [active: 1959-1986]	img/daily-weather.png	24,24	0,-24
54.49	-0.606	whitby-coastguard	WHITBY COASTGUARD (00364) north-yorkshire lat: 54.49, long: -0.606, ele: 60 [active: 1961-2002]	img/daily-weather.png	24,24	0,-24
53.847	-0.887	aughton-ruddings	AUGHTON RUDDINGS (00365) humberside lat: 53.847, long: -0.887, ele: 8 [active: 1992-1999]	img/daily-weather.png	24,24	0,-24
54.105	-0.643	high-mowthorpe	HIGH MOWTHORPE (00367) north-yorkshire lat: 54.105, long: -0.643, ele: 175 [active: 1959-2016]	img/daily-weather.png	24,24	0,-24
53.995	-0.47	driffield	DRIFFIELD (00368) humberside lat: 53.995, long: -0.47, ele: 20 [active: 1957-1959]	img/daily-weather.png	24,24	0,-24
53.756	-0.358	hull	HULL (00369) humberside lat: 53.756, long: -0.358, ele: 2 [active: 1903-2010]	img/daily-weather.png	24,24	0,-24
53.875	-0.442	leconfield	LECONFIELD (00370) humberside lat: 53.875, long: -0.442, ele: 7 [active: 1959-2017]	img/daily-weather.png	24,24	0,-24
54.205	-0.295	filey	FILEY (00372) north-yorkshire lat: 54.205, long: -0.295, ele: 37 [active: 1959-1971]	img/daily-weather.png	24,24	0,-24
54.094	-0.176	bridlington-mrsc	BRIDLINGTON MRSC (00373) humberside lat: 54.094, long: -0.176, ele: 15 [active: 1990-2017]	img/daily-weather.png	24,24	0,-24
54.1	-0.208	bridlington	BRIDLINGTON (00374) humberside lat: 54.1, long: -0.208, ele: 48 [active: 1959-1980]	img/daily-weather.png	24,24	0,-24
54.095	-0.196	bridlington-cemetery	BRIDLINGTON CEMETERY (00375) humberside lat: 54.095, long: -0.196, ele: 25 [active: 1982-1989]	img/daily-weather.png	24,24	0,-24
53.622	0.141	kilnsea	KILNSEA (00376) humberside lat: 53.622, long: 0.141, ele: 12 [active: 1957-1976]	img/daily-weather.png	24,24	0,-24
53.575	0.111	spurn-point	SPURN POINT (00377) humberside lat: 53.575, long: 0.111, ele: 6 [active: 1982-1986]	img/daily-weather.png	24,24	0,-24
53.844	-0.103	cowden	COWDEN (00379) humberside lat: 53.844, long: -0.103, ele: 15 [active: 1995-1997]	img/daily-weather.png	24,24	0,-24
53.409	-0.771	gainsborough	GAINSBOROUGH (00380) lincolnshire lat: 53.409, long: -0.771, ele: 34 [active: 1960-1963]	img/daily-weather.png	24,24	0,-24
53.307	-0.548	scampton	SCAMPTON (00381) lincolnshire lat: 53.307, long: -0.548, ele: 57 [active: 1984-2017]	img/daily-weather.png	24,24	0,-24
53.637	-0.659	normanby-hall	NORMANBY HALL (00382) humberside lat: 53.637, long: -0.659, ele: 47 [active: 1993-2010]	img/daily-weather.png	24,24	0,-24
53.108	-0.549	navenby	NAVENBY (00383) lincolnshire lat: 53.108, long: -0.549, ele: 18 [active: 1962-1965]	img/daily-weather.png	24,24	0,-24
53.175	-0.523	waddington	WADDINGTON (00384) lincolnshire lat: 53.175, long: -0.523, ele: 68 [active: 1949-2017]	img/daily-weather.png	24,24	0,-24
53.235	-0.56	lincoln	LINCOLN (00385) lincolnshire lat: 53.235, long: -0.56, ele: 6 [active: 1959-1982]	img/daily-weather.png	24,24	0,-24
53.031	-0.504	cranwell	CRANWELL (00386) lincolnshire lat: 53.031, long: -0.504, ele: 63 [active: 1930-2017]	img/daily-weather.png	24,24	0,-24
53.562	-0.489	brigg	BRIGG (00387) lincolnshire lat: 53.562, long: -0.489, ele: 3 [active: 1964-1977]	img/daily-weather.png	24,24	0,-24
52.755	-0.318	bourne	BOURNE (00388) lincolnshire lat: 52.755, long: -0.318, ele: 2 [active: 1990-1998]	img/daily-weather.png	24,24	0,-24
53.503	-0.37	caistor	CAISTOR (00389) lincolnshire lat: 53.503, long: -0.37, ele: 21 [active: 1965-1982]	img/daily-weather.png	24,24	0,-24
53.095	0.321	gibraltar-point	GIBRALTAR POINT (00390) lincolnshire lat: 53.095, long: 0.321, ele: 3 [active: 1987-1989]	img/daily-weather.png	24,24	0,-24
53.425	-0.286	walesby	WALESBY (00391) lincolnshire lat: 53.425, long: -0.286, ele: 115 [active: 1994-2005]	img/daily-weather.png	24,24	0,-24
52.937	-0.068	kirton-horticulture	KIRTON, HORTICULTURE (00392) lincolnshire lat: 52.937, long: -0.068, ele: 4 [active: 1974-2009]	img/daily-weather.png	24,24	0,-24
53.094	-0.173	coningsby	CONINGSBY (00393) lincolnshire lat: 53.094, long: -0.173, ele: 6 [active: 1978-2017]	img/daily-weather.png	24,24	0,-24
53.445	-0.202	binbrook	BINBROOK (00394) lincolnshire lat: 53.445, long: -0.202, ele: 108 [active: 1963-1992]	img/daily-weather.png	24,24	0,-24
52.873	0.139	holbeach-no-2	HOLBEACH NO 2 (00395) lincolnshire lat: 52.873, long: 0.139, ele: 3 [active: 1991-2017]	img/daily-weather.png	24,24	0,-24
53.249	0.077	driby	DRIBY (00396) lincolnshire lat: 53.249, long: 0.077, ele: 41 [active: 1979-1997]	img/daily-weather.png	24,24	0,-24
53.45	0.033	covenham	COVENHAM (00397) lincolnshire lat: 53.45, long: 0.033, ele: 3 [active: 1979-1990]	img/daily-weather.png	24,24	0,-24
53.552	-0.018	cleethorpes	CLEETHORPES (00398) humberside lat: 53.552, long: -0.018, ele: 7 [active: 1959-1981]	img/daily-weather.png	24,24	0,-24
53.55	-0.03	cleethorpes-haverstoe-park	CLEETHORPES, HAVERSTOE PARK (00399) humberside lat: 53.55, long: -0.03, ele: 7 [active: 1981-2003]	img/daily-weather.png	24,24	0,-24
52.76	0.193	sutton-bridge-exp-sta	SUTTON BRIDGE EXP STA (00400) lincolnshire lat: 52.76, long: 0.193, ele: 4 [active: 1965-1979]	img/daily-weather.png	24,24	0,-24
53.361	0.097	manby	MANBY (00401) lincolnshire lat: 53.361, long: 0.097, ele: 13 [active: 1957-1974]	img/daily-weather.png	24,24	0,-24
53.148	0.346	skegness	SKEGNESS (00403) lincolnshire lat: 53.148, long: 0.346, ele: 6 [active: 1904-2017]	img/daily-weather.png	24,24	0,-24
53.222	-0.505	lincoln-canwick	LINCOLN (CANWICK) (00404) lincolnshire lat: 53.222, long: -0.505, ele: 7 [active: 1983-1996]	img/daily-weather.png	24,24	0,-24
53.475	0.153	donna-nook-no-2	DONNA NOOK NO 2 (00405) lincolnshire lat: 53.475, long: 0.153, ele: 8 [active: 1993-2017]	img/daily-weather.png	24,24	0,-24
52.745	0.288	terrington-st-clement	TERRINGTON ST CLEMENT (00406) norfolk lat: 52.745, long: 0.288, ele: 2 [active: 1959-2007]	img/daily-weather.png	24,24	0,-24
52.583	0.346	denver	DENVER (00407) norfolk lat: 52.583, long: 0.346, ele: 3 [active: 1978-2017]	img/daily-weather.png	24,24	0,-24
52.626	1.298	norwich-weather-centre	NORWICH WEATHER CENTRE (00408) norfolk lat: 52.626, long: 1.298, ele: 35 [active: 1987-2000]	img/daily-weather.png	24,24	0,-24
52.651	0.566	marham	MARHAM (00409) norfolk lat: 52.651, long: 0.566, ele: 21 [active: 1957-2017]	img/daily-weather.png	24,24	0,-24
52.952	0.499	hunstanton-no-2	HUNSTANTON NO 2 (00411) norfolk lat: 52.952, long: 0.499, ele: 15 [active: 1988-2009]	img/daily-weather.png	24,24	0,-24
52.479	0.668	santon-downham-grimes-graves	SANTON DOWNHAM, GRIMES GRAVES (00412) norfolk lat: 52.479, long: 0.668, ele: 24 [active: 1959-1988]	img/daily-weather.png	24,24	0,-24
52.459	0.671	santon-downham	SANTON DOWNHAM (00413) suffolk lat: 52.459, long: 0.671, ele: 6 [active: 1988-2016]	img/daily-weather.png	24,24	0,-24
52.771	0.778	south-raynham	SOUTH RAYNHAM (00414) norfolk lat: 52.771, long: 0.778, ele: 68 [active: 1989-2000]	img/daily-weather.png	24,24	0,-24
52.786	0.737	west-raynham	WEST RAYNHAM (00415) norfolk lat: 52.786, long: 0.737, ele: 73 [active: 1957-1969]	img/daily-weather.png	24,24	0,-24
52.851	0.755	sculthorpe	SCULTHORPE (00416) norfolk lat: 52.851, long: 0.755, ele: 65 [active: 1978-1979]	img/daily-weather.png	24,24	0,-24
52.387	1.052	bressingham	BRESSINGHAM (00417) norfolk lat: 52.387, long: 1.052, ele: 35 [active: 1987-1991]	img/daily-weather.png	24,24	0,-24
52.68	0.959	east-dereham-neatherd	EAST DEREHAM, NEATHERD (00418) norfolk lat: 52.68, long: 0.959, ele: 53 [active: 1979-1982]	img/daily-weather.png	24,24	0,-24
52.685	0.949	east-dereham	EAST DEREHAM (00419) norfolk lat: 52.685, long: 0.949, ele: 53 [active: 1965-1976]	img/daily-weather.png	24,24	0,-24
52.859	1.073	melton-constable-stody-estate	MELTON CONSTABLE, STODY ESTATE (00420) norfolk lat: 52.859, long: 1.073, ele: 54 [active: 1993-2003]	img/daily-weather.png	24,24	0,-24
52.949	1.122	weybourne	WEYBOURNE (00421) norfolk lat: 52.949, long: 1.122, ele: 21 [active: 1991-2017]	img/daily-weather.png	24,24	0,-24
52.555	1.039	morley-st-botolph	MORLEY ST BOTOLPH (00422) norfolk lat: 52.555, long: 1.039, ele: 46 [active: 1968-2005]	img/daily-weather.png	24,24	0,-24
52.663	1.216	costessey	COSTESSEY (00423) norfolk lat: 52.663, long: 1.216, ele: 18 [active: 1972-1975]	img/daily-weather.png	24,24	0,-24
52.934	1.291	cromer	CROMER (00426) norfolk lat: 52.934, long: 1.291, ele: 37 [active: 1902-2016]	img/daily-weather.png	24,24	0,-24
52.365	1.158	scole	SCOLE (00427) norfolk lat: 52.365, long: 1.158, ele: 27 [active: 1971-1980]	img/daily-weather.png	24,24	0,-24
52.662	1.327	sprowston	SPROWSTON (00428) norfolk lat: 52.662, long: 1.327, ele: 28 [active: 1959-1968]	img/daily-weather.png	24,24	0,-24
52.757	1.351	coltishall	COLTISHALL (00429) norfolk lat: 52.757, long: 1.351, ele: 17 [active: 1962-2006]	img/daily-weather.png	24,24	0,-24
52.473	1.429	ditchingham-no-2	DITCHINGHAM NO 2 (00430) norfolk lat: 52.473, long: 1.429, ele: 26 [active: 1992-1999]	img/daily-weather.png	24,24	0,-24
52.637	1.506	burlingham	BURLINGHAM (00431) norfolk lat: 52.637, long: 1.506, ele: 27 [active: 1959-1976]	img/daily-weather.png	24,24	0,-24
52.572	1.738	gorleston	GORLESTON (00432) norfolk lat: 52.572, long: 1.738, ele: 4 [active: 1930-1984]	img/daily-weather.png	24,24	0,-24
52.686	1.687	hemsby	HEMSBY (00433) norfolk lat: 52.686, long: 1.687, ele: 13 [active: 1978-2001]	img/daily-weather.png	24,24	0,-24
52.372	0.471	mildenhall	MILDENHALL (00434) suffolk lat: 52.372, long: 0.471, ele: 5 [active: 1949-1969]	img/daily-weather.png	24,24	0,-24
52.261	0.566	brooms-barn	BROOMS BARN (00435) suffolk lat: 52.261, long: 0.566, ele: 75 [active: 1964-2016]	img/daily-weather.png	24,24	0,-24
52.091	0.628	cavendish	CAVENDISH (00436) suffolk lat: 52.091, long: 0.628, ele: 55 [active: 1977-2017]	img/daily-weather.png	24,24	0,-24
52.06	1.284	martlesham-heath	MARTLESHAM HEATH (00437) suffolk lat: 52.06, long: 1.284, ele: 25 [active: 1984-1987]	img/daily-weather.png	24,24	0,-24
52.34	0.77	honington	HONINGTON (00438) suffolk lat: 52.34, long: 0.77, ele: 51 [active: 1969-2002]	img/daily-weather.png	24,24	0,-24
51.96	1.023	east-bergholt	EAST BERGHOLT (00439) suffolk lat: 51.96, long: 1.023, ele: 7 [active: 1959-2017]	img/daily-weather.png	24,24	0,-24
52.124	0.957	wattisham	WATTISHAM (00440) suffolk lat: 52.124, long: 0.957, ele: 89 [active: 1959-2017]	img/daily-weather.png	24,24	0,-24
52.236	0.973	haughley	HAUGHLEY (00441) suffolk lat: 52.236, long: 0.973, ele: 62 [active: 1974-1982]	img/daily-weather.png	24,24	0,-24
52.163	1.28	charsfield	CHARSFIELD (00442) suffolk lat: 52.163, long: 1.28, ele: 49 [active: 1992-2011]	img/daily-weather.png	24,24	0,-24
51.947	1.325	felixstowe	FELIXSTOWE (00443) suffolk lat: 51.947, long: 1.325, ele: 3 [active: 1957-1961]	img/daily-weather.png	24,24	0,-24
52.012	1.264	levington	LEVINGTON (00444) suffolk lat: 52.012, long: 1.264, ele: 22 [active: 1977-1996]	img/daily-weather.png	24,24	0,-24
52.247	1.621	westleton	WESTLETON (00445) suffolk lat: 52.247, long: 1.621, ele: 10 [active: 1988-2015]	img/daily-weather.png	24,24	0,-24
52.147	1.603	aldeburgh	ALDEBURGH (00448) suffolk lat: 52.147, long: 1.603, ele: 7 [active: 1965-1978]	img/daily-weather.png	24,24	0,-24
52.49	1.744	lowestoft	LOWESTOFT (00449) suffolk lat: 52.49, long: 1.744, ele: 25 [active: 1901-2003]	img/daily-weather.png	24,24	0,-24
52.257	-0.028	boxworth-home-paddock	BOXWORTH, HOME PADDOCK (00450) cambridgeshire lat: 52.257, long: -0.028, ele: 48 [active: 1959-1976]	img/daily-weather.png	24,24	0,-24
52.251	-0.033	boxworth-samson-field	BOXWORTH, SAMSON FIELD (00451) cambridgeshire lat: 52.251, long: -0.033, ele: 53 [active: 1977-1998]	img/daily-weather.png	24,24	0,-24
52.422	0.1	mepal	MEPAL (00452) cambridgeshire lat: 52.422, long: 0.1, ele: -2 [active: 1967-2005]	img/daily-weather.png	24,24	0,-24
52.55	0.093	march	MARCH (00453) cambridgeshire lat: 52.55, long: 0.093, ele: 2 [active: 1970-2002]	img/daily-weather.png	24,24	0,-24
52.194	0.129	cambridge-botanic-garden	CAMBRIDGE, BOTANIC GARDEN (00454) cambridgeshire lat: 52.194, long: 0.129, ele: 13 [active: 1911-2017]	img/daily-weather.png	24,24	0,-24
52.245	0.1	cambridge-niab	CAMBRIDGE, NIAB (00455) cambridgeshire lat: 52.245, long: 0.1, ele: 26 [active: 1959-2011]	img/daily-weather.png	24,24	0,-24
52.402	-0.237	monks-wood	MONKS WOOD (00456) cambridgeshire lat: 52.402, long: -0.237, ele: 41 [active: 1963-2017]	img/daily-weather.png	24,24	0,-24
52.354	-0.116	wyton	WYTON (00457) cambridgeshire lat: 52.354, long: -0.116, ele: 40 [active: 1957-1995]	img/daily-weather.png	24,24	0,-24
52.014	-0.596	woburn	WOBURN (00458) bedfordshire lat: 52.014, long: -0.596, ele: 89 [active: 1904-2017]	img/daily-weather.png	24,24	0,-24
51.886	-0.54	dunstable	DUNSTABLE (00459) bedfordshire lat: 51.886, long: -0.54, ele: 157 [active: 1957-1960]	img/daily-weather.png	24,24	0,-24
52.227	-0.465	bedford	BEDFORD (00461) bedfordshire lat: 52.227, long: -0.465, ele: 85 [active: 1980-2017]	img/daily-weather.png	24,24	0,-24
52.148	-0.432	goldington	GOLDINGTON (00462) bedfordshire lat: 52.148, long: -0.432, ele: 33 [active: 1959-1961]	img/daily-weather.png	24,24	0,-24
51.897	-0.419	luton-wardown-park	LUTON, WARDOWN PARK (00463) bedfordshire lat: 51.897, long: -0.419, ele: 116 [active: 1959-1966]	img/daily-weather.png	24,24	0,-24
52.01	-0.41	silsoe	SILSOE (00464) bedfordshire lat: 52.01, long: -0.41, ele: 59 [active: 1959-1999]	img/daily-weather.png	24,24	0,-24
52.104	-0.423	cardington	CARDINGTON (00465) bedfordshire lat: 52.104, long: -0.423, ele: 29 [active: 1957-1980]	img/daily-weather.png	24,24	0,-24
51.882	-0.377	luton	LUTON (00466) bedfordshire lat: 51.882, long: -0.377, ele: 158 [active: 1967-1989]	img/daily-weather.png	24,24	0,-24
54.076	-2.86	morecambe-no-2	MORECAMBE NO 2 (16851) lancashire lat: 54.076, long: -2.86, ele: 7 [active: 1994-2017]	img/daily-weather.png	24,24	0,-24
51.724	-0.544	bovingdon	BOVINGDON (00468) hertfordshire lat: 51.724, long: -0.544, ele: 157 [active: 1957-1967]	img/daily-weather.png	24,24	0,-24
51.662	-0.328	aldenham-school-no-2	ALDENHAM SCHOOL NO 2 (00469) hertfordshire lat: 51.662, long: -0.328, ele: 91 [active: 1964-2007]	img/daily-weather.png	24,24	0,-24
51.702	-0.376	garston-building-research	GARSTON, BUILDING RESEARCH  (00470) hertfordshire lat: 51.702, long: -0.376, ele: 78 [active: 1961-1982]	img/daily-weather.png	24,24	0,-24
51.807	-0.36	rothamsted	ROTHAMSTED (00471) hertfordshire lat: 51.807, long: -0.36, ele: 128 [active: 1911-2017]	img/daily-weather.png	24,24	0,-24
51.756	-0.288	st-albans-oaklands	ST ALBANS, OAKLANDS (00472) hertfordshire lat: 51.756, long: -0.288, ele: 80 [active: 1959-1984]	img/daily-weather.png	24,24	0,-24
51.997	-0.242	letchworth	LETCHWORTH (00474) hertfordshire lat: 51.997, long: -0.242, ele: 59 [active: 1962-1978]	img/daily-weather.png	24,24	0,-24
51.776	-0.095	bayfordbury	BAYFORDBURY (00475) hertfordshire lat: 51.776, long: -0.095, ele: 67 [active: 1959-1960]	img/daily-weather.png	24,24	0,-24
51.773	0.012	stanstead-abbots	STANSTEAD ABBOTS (00476) hertfordshire lat: 51.773, long: 0.012, ele: 30 [active: 1959-1993]	img/daily-weather.png	24,24	0,-24
51.777	-0.017	hoddesdon	HODDESDON (00477) hertfordshire lat: 51.777, long: -0.017, ele: 43 [active: 1959-1988]	img/daily-weather.png	24,24	0,-24
51.783	0.096	eastwick-lodge	EASTWICK LODGE (00478) essex lat: 51.783, long: 0.096, ele: 42 [active: 1959-1966]	img/daily-weather.png	24,24	0,-24
51.954	0.087	brent-pelham	BRENT PELHAM (00479) hertfordshire lat: 51.954, long: 0.087, ele: 113 [active: 1988-1991]	img/daily-weather.png	24,24	0,-24
51.664	0.041	high-beach	HIGH BEACH (00481) essex lat: 51.664, long: 0.041, ele: 110 [active: 1978-2013]	img/daily-weather.png	24,24	0,-24
51.777	0.095	little-parndon	LITTLE PARNDON (00482) hertfordshire lat: 51.777, long: 0.095, ele: 54 [active: 1967-1978]	img/daily-weather.png	24,24	0,-24
51.77	0.13	harlow	HARLOW (00483) essex lat: 51.77, long: 0.13, ele: 79 [active: 1964-1983]	img/daily-weather.png	24,24	0,-24
51.881	0.223	stansted	STANSTED (00484) essex lat: 51.881, long: 0.223, ele: 101 [active: 1957-1997]	img/daily-weather.png	24,24	0,-24
52.023	0.221	audley-end	AUDLEY END (00485) essex lat: 52.023, long: 0.221, ele: 52 [active: 1977-1978]	img/daily-weather.png	24,24	0,-24
51.506	0.427	stanford-le-hope	STANFORD-LE-HOPE (00486) essex lat: 51.506, long: 0.427, ele: 6 [active: 1974-1982]	img/daily-weather.png	24,24	0,-24
51.734	0.429	writtle	WRITTLE (00487) essex lat: 51.734, long: 0.429, ele: 32 [active: 1959-2016]	img/daily-weather.png	24,24	0,-24
52.059	0.492	wixoe	WIXOE (00488) essex lat: 52.059, long: 0.492, ele: 50 [active: 1978-1989]	img/daily-weather.png	24,24	0,-24
51.513	0.515	coryton	CORYTON (00489) essex lat: 51.513, long: 0.515, ele: 3 [active: 1959-1964]	img/daily-weather.png	24,24	0,-24
51.641	0.585	rettendon	RETTENDON (00490) essex lat: 51.641, long: 0.585, ele: 19 [active: 1987-2008]	img/daily-weather.png	24,24	0,-24
51.947	0.645	halstead	HALSTEAD (00491) essex lat: 51.947, long: 0.645, ele: 70 [active: 1975-1993]	img/daily-weather.png	24,24	0,-24
51.535	0.703	southend	SOUTHEND (00492) essex lat: 51.535, long: 0.703, ele: 27 [active: 1959-1970]	img/daily-weather.png	24,24	0,-24
51.726	0.696	maldon	MALDON (00493) essex lat: 51.726, long: 0.696, ele: 4 [active: 1959-1976]	img/daily-weather.png	24,24	0,-24
51.927	0.701	earls-colne	EARLS COLNE (00494) essex lat: 51.927, long: 0.701, ele: 51 [active: 1962-1975]	img/daily-weather.png	24,24	0,-24
51.603	0.604	rayleigh-rawreth-lane	RAYLEIGH, RAWRETH LANE (00495) essex lat: 51.603, long: 0.604, ele: 28 [active: 1980-1986]	img/daily-weather.png	24,24	0,-24
51.532	0.738	southend-southchurch-park	SOUTHEND, SOUTHCHURCH PARK (00496) essex lat: 51.532, long: 0.738, ele: 4 [active: 1971-2005]	img/daily-weather.png	24,24	0,-24
51.537	0.807	shoeburyness	SHOEBURYNESS (00497) essex lat: 51.537, long: 0.807, ele: 2 [active: 1930-1981]	img/daily-weather.png	24,24	0,-24
51.555	0.827	shoeburyness-landwick	SHOEBURYNESS, LANDWICK (00498) essex lat: 51.555, long: 0.827, ele: 2 [active: 1983-2017]	img/daily-weather.png	24,24	0,-24
51.917	0.926	colchester-severalls-lane	COLCHESTER, SEVERALLS LANE (00500) essex lat: 51.917, long: 0.926, ele: 46 [active: 1986-2005]	img/daily-weather.png	24,24	0,-24
51.785	1.148	clacton-on-sea	CLACTON-ON-SEA (00502) essex lat: 51.785, long: 1.148, ele: 16 [active: 1959-1995]	img/daily-weather.png	24,24	0,-24
51.851	1.266	walton-on-naze	WALTON ON NAZE (00503) essex lat: 51.851, long: 1.266, ele: 11 [active: 1959-1960]	img/daily-weather.png	24,24	0,-24
51.855	1.28	walton-on-the-naze	WALTON-ON-THE-NAZE (00504) essex lat: 51.855, long: 1.28, ele: 5 [active: 1962-1974]	img/daily-weather.png	24,24	0,-24
51.922	1.26	dovercourt-no-2	DOVERCOURT NO 2 (00505) essex lat: 51.922, long: 1.26, ele: 3 [active: 1959-1974]	img/daily-weather.png	24,24	0,-24
53.533	-1.857	holme-moss	HOLME MOSS (00506) west-yorkshire lat: 53.533, long: -1.857, ele: 520 [active: 1984-1995]	img/daily-weather.png	24,24	0,-24
53.988	-2.435	slaidburn	SLAIDBURN (00507) lancashire lat: 53.988, long: -2.435, ele: 192 [active: 1959-1996]	img/daily-weather.png	24,24	0,-24
54.1	-2.164	malham-tarn	MALHAM TARN (00509) north-yorkshire lat: 54.1, long: -2.164, ele: 381 [active: 1959-2017]	img/daily-weather.png	24,24	0,-24
53.663	-1.952	rishworth	RISHWORTH (00510) west-yorkshire lat: 53.663, long: -1.952, ele: 170 [active: 1990-1992]	img/daily-weather.png	24,24	0,-24
53.846	-1.862	bingley-no-1	BINGLEY, NO 1 (00512) west-yorkshire lat: 53.846, long: -1.862, ele: 186 [active: 1959-1961]	img/daily-weather.png	24,24	0,-24
53.811	-1.867	bingley-no-2	BINGLEY, NO 2 (00513) west-yorkshire lat: 53.811, long: -1.867, ele: 262 [active: 1973-2017]	img/daily-weather.png	24,24	0,-24
53.645	-1.755	huddersfield	HUDDERSFIELD (00514) west-yorkshire lat: 53.645, long: -1.755, ele: 99 [active: 1959-1977]	img/daily-weather.png	24,24	0,-24
53.656	-1.831	huddersfield-oakes	HUDDERSFIELD, OAKES (00515) west-yorkshire lat: 53.656, long: -1.831, ele: 232 [active: 1957-1986]	img/daily-weather.png	24,24	0,-24
53.814	-1.774	bradford	BRADFORD (00516) west-yorkshire lat: 53.814, long: -1.774, ele: 134 [active: 1908-2013]	img/daily-weather.png	24,24	0,-24
53.927	-1.811	ilkley-no-2	ILKLEY NO 2 (00517) west-yorkshire lat: 53.927, long: -1.811, ele: 84 [active: 1959-1986]	img/daily-weather.png	24,24	0,-24
53.326	-1.542	dore	DORE (00518) south-yorkshire lat: 53.326, long: -1.542, ele: 212 [active: 1962-1964]	img/daily-weather.png	24,24	0,-24
53.354	-1.518	sheffield-ecclesall	SHEFFIELD, ECCLESALL (00519) south-yorkshire lat: 53.354, long: -1.518, ele: 210 [active: 1960-1962]	img/daily-weather.png	24,24	0,-24
53.331	-1.537	sheffield-dore	SHEFFIELD, DORE (00520) south-yorkshire lat: 53.331, long: -1.537, ele: 206 [active: 1976-1985]	img/daily-weather.png	24,24	0,-24
53.613	-1.665	emley-moor	EMLEY MOOR (00521) west-yorkshire lat: 53.613, long: -1.665, ele: 259 [active: 1984-2010]	img/daily-weather.png	24,24	0,-24
53.728	-1.645	wilton-park	WILTON PARK (00522) west-yorkshire lat: 53.728, long: -1.645, ele: 130 [active: 1966-1971]	img/daily-weather.png	24,24	0,-24
53.801	-1.561	leeds-weather-centre	LEEDS WEATHER CENTRE (00523) west-yorkshire lat: 53.801, long: -1.561, ele: 64 [active: 1985-2003]	img/daily-weather.png	24,24	0,-24
54.015	-1.539	harrogate	HARROGATE (00524) north-yorkshire lat: 54.015, long: -1.539, ele: 66 [active: 1959-2003]	img/daily-weather.png	24,24	0,-24
53.381	-1.491	sheffield	SHEFFIELD (00525) south-yorkshire lat: 53.381, long: -1.491, ele: 131 [active: 1959-2017]	img/daily-weather.png	24,24	0,-24
53.675	-1.506	wakefield	WAKEFIELD (00528) west-yorkshire lat: 53.675, long: -1.506, ele: 35 [active: 1959-1965]	img/daily-weather.png	24,24	0,-24
53.628	-1.394	ryhill	RYHILL (00529) west-yorkshire lat: 53.628, long: -1.394, ele: 78 [active: 1994-2011]	img/daily-weather.png	24,24	0,-24
54.015	-1.585	killinghall	KILLINGHALL (00530) north-yorkshire lat: 54.015, long: -1.585, ele: 111 [active: 1959-1961]	img/daily-weather.png	24,24	0,-24
53.426	-1.347	rotherham	ROTHERHAM (00531) south-yorkshire lat: 53.426, long: -1.347, ele: 86 [active: 1959-1970]	img/daily-weather.png	24,24	0,-24
53.684	-1.316	pontefract	PONTEFRACT (00532) west-yorkshire lat: 53.684, long: -1.316, ele: 78 [active: 1959-1981]	img/daily-weather.png	24,24	0,-24
53.836	-1.199	church-fenton	CHURCH FENTON (00533) north-yorkshire lat: 53.836, long: -1.199, ele: 8 [active: 1984-2013]	img/daily-weather.png	24,24	0,-24
53.869	-1.319	bramham	BRAMHAM (00534) west-yorkshire lat: 53.869, long: -1.319, ele: 54 [active: 1959-2017]	img/daily-weather.png	24,24	0,-24
53.828	-1.148	cawood	CAWOOD (00535) north-yorkshire lat: 53.828, long: -1.148, ele: 6 [active: 1959-2017]	img/daily-weather.png	24,24	0,-24
53.923	-1.163	askham-bryan	ASKHAM BRYAN (00536) north-yorkshire lat: 53.923, long: -1.163, ele: 32 [active: 1959-2005]	img/daily-weather.png	24,24	0,-24
53.549	-0.972	lindholme	LINDHOLME (00537) south-yorkshire lat: 53.549, long: -0.972, ele: 5 [active: 1957-1958]	img/daily-weather.png	24,24	0,-24
53.258	-1.914	buxton	BUXTON (00539) derbyshire lat: 53.258, long: -1.914, ele: 307 [active: 1889-2017]	img/daily-weather.png	24,24	0,-24
53.337	-1.887	chapel-en-le-frith	CHAPEL EN LE FRITH (00540) derbyshire lat: 53.337, long: -1.887, ele: 274 [active: 1959-1966]	img/daily-weather.png	24,24	0,-24
53.009	-1.724	ashbourne	ASHBOURNE (00541) derbyshire lat: 53.009, long: -1.724, ele: 175 [active: 1989-1991]	img/daily-weather.png	24,24	0,-24
52.737	-1.641	coton-in-the-elms	COTON-IN-THE-ELMS (00542) derbyshire lat: 52.737, long: -1.641, ele: 85 [active: 1991-2011]	img/daily-weather.png	24,24	0,-24
52.936	-1.506	derby-markeaton-park	DERBY, MARKEATON PARK (00543) derbyshire lat: 52.936, long: -1.506, ele: 58 [active: 1984-1990]	img/daily-weather.png	24,24	0,-24
53.227	-1.611	chatsworth-gardens	CHATSWORTH GARDENS (00544) derbyshire lat: 53.227, long: -1.611, ele: 133 [active: 1965-1974]	img/daily-weather.png	24,24	0,-24
53.288	-1.579	barbrook	BARBROOK (00545) derbyshire lat: 53.288, long: -1.579, ele: 323 [active: 1978-1979]	img/daily-weather.png	24,24	0,-24
52.84	-1.553	repton-school	REPTON SCHOOL (00546) derbyshire lat: 52.84, long: -1.553, ele: 55 [active: 1968-1972]	img/daily-weather.png	24,24	0,-24
52.922	-1.527	mackworth	MACKWORTH (00547) derbyshire lat: 52.922, long: -1.527, ele: 89 [active: 1960-1974]	img/daily-weather.png	24,24	0,-24
53.017	-1.486	belper	BELPER (00548) derbyshire lat: 53.017, long: -1.486, ele: 62 [active: 1958-1973]	img/daily-weather.png	24,24	0,-24
53.163	-1.48	ashover-no-2	ASHOVER NO 2 (00549) derbyshire lat: 53.163, long: -1.48, ele: 178 [active: 1967-2015]	img/daily-weather.png	24,24	0,-24
52.927	-1.467	derby	DERBY (00550) derbyshire lat: 52.927, long: -1.467, ele: 48 [active: 1959-1978]	img/daily-weather.png	24,24	0,-24
52.957	-1.429	morley	MORLEY (00551) derbyshire lat: 52.957, long: -1.429, ele: 105 [active: 1959-2006]	img/daily-weather.png	24,24	0,-24
53.194	-1.435	wingerworth-no-2	WINGERWORTH NO 2 (00552) derbyshire lat: 53.194, long: -1.435, ele: 115 [active: 1968-1991]	img/daily-weather.png	24,24	0,-24
53.241	-1.426	chesterfield	CHESTERFIELD (00553) derbyshire lat: 53.241, long: -1.426, ele: 91 [active: 1959-1966]	img/daily-weather.png	24,24	0,-24
52.836	-1.251	sutton-bonington	SUTTON BONINGTON (00554) nottinghamshire lat: 52.836, long: -1.251, ele: 43 [active: 1924-2017]	img/daily-weather.png	24,24	0,-24
53.0	-1.292	newthorpe	NEWTHORPE (00555) nottinghamshire lat: 53.0, long: -1.292, ele: 58 [active: 1972-1983]	img/daily-weather.png	24,24	0,-24
53.006	-1.251	nottingham-watnall	NOTTINGHAM, WATNALL (00556) nottinghamshire lat: 53.006, long: -1.251, ele: 117 [active: 1957-2017]	img/daily-weather.png	24,24	0,-24
52.911	-1.188	nottingham-training-college	NOTTINGHAM TRAINING COLLEGE (00557) nottinghamshire lat: 52.911, long: -1.188, ele: 51 [active: 1963-1968]	img/daily-weather.png	24,24	0,-24
53.151	-1.19	mansfield-no-2	MANSFIELD NO 2 (00558) nottinghamshire lat: 53.151, long: -1.19, ele: 114 [active: 1959-1987]	img/daily-weather.png	24,24	0,-24
52.95	-1.155	nottingham	NOTTINGHAM (00559) nottinghamshire lat: 52.95, long: -1.155, ele: 59 [active: 1924-1982]	img/daily-weather.png	24,24	0,-24
52.878	-1.079	keyworth	KEYWORTH (00560) nottinghamshire lat: 52.878, long: -1.079, ele: 69 [active: 1988-2001]	img/daily-weather.png	24,24	0,-24
53.223	-1.116	warsop	WARSOP (00561) nottinghamshire lat: 53.223, long: -1.116, ele: 46 [active: 1959-2000]	img/daily-weather.png	24,24	0,-24
53.483	-1.008	finningley	FINNINGLEY (00562) south-yorkshire lat: 53.483, long: -1.008, ele: 10 [active: 1958-1995]	img/daily-weather.png	24,24	0,-24
53.064	-0.963	southwell	SOUTHWELL (00564) nottinghamshire lat: 53.064, long: -0.963, ele: 70 [active: 1989-1993]	img/daily-weather.png	24,24	0,-24
53.338	-0.956	west-retford	WEST RETFORD (00565) nottinghamshire lat: 53.338, long: -0.956, ele: 14 [active: 1994-1998]	img/daily-weather.png	24,24	0,-24
53.396	-0.932	wiseton	WISETON (00566) nottinghamshire lat: 53.396, long: -0.932, ele: 6 [active: 1979-1995]	img/daily-weather.png	24,24	0,-24
53.341	-0.901	clarborough	CLARBOROUGH (00567) nottinghamshire lat: 53.341, long: -0.901, ele: 21 [active: 1987-1993]	img/daily-weather.png	24,24	0,-24
52.896	-0.909	langar	LANGAR (00568) nottinghamshire lat: 52.896, long: -0.909, ele: 32 [active: 1957-1961]	img/daily-weather.png	24,24	0,-24
52.681	-1.217	newtown-linford	NEWTOWN LINFORD (00569) leicestershire lat: 52.681, long: -1.217, ele: 119 [active: 1959-2002]	img/daily-weather.png	24,24	0,-24
52.613	-1.068	stoughton	STOUGHTON (00571) leicestershire lat: 52.613, long: -1.068, ele: 100 [active: 1990-1996]	img/daily-weather.png	24,24	0,-24
52.633	-1.125	leicester-mercury	LEICESTER MERCURY (00572) leicestershire lat: 52.633, long: -1.125, ele: 61 [active: 1981-1982]	img/daily-weather.png	24,24	0,-24
52.632	-1.081	leicester	LEICESTER (00573) leicestershire lat: 52.632, long: -1.081, ele: 81 [active: 1959-1963]	img/daily-weather.png	24,24	0,-24
52.732	-0.996	brooksby-hall-no-2	BROOKSBY HALL NO 2 (00574) leicestershire lat: 52.732, long: -0.996, ele: 70 [active: 1979-1996]	img/daily-weather.png	24,24	0,-24
52.53	-0.727	caldecott-p-sta	CALDECOTT P STA (00575) leicestershire lat: 52.53, long: -0.727, ele: 53 [active: 1959-1994]	img/daily-weather.png	24,24	0,-24
52.727	-0.656	cottesmore	COTTESMORE (00576) leicestershire lat: 52.727, long: -0.656, ele: 136 [active: 1984-2011]	img/daily-weather.png	24,24	0,-24
52.221	-1.005	bugbrooke-mill	BUGBROOKE MILL (00577) northamptonshire lat: 52.221, long: -1.005, ele: 76 [active: 1961-1978]	img/daily-weather.png	24,24	0,-24
52.274	-0.881	northampton-moulton-park	NORTHAMPTON, MOULTON PARK (00578) northamptonshire lat: 52.274, long: -0.881, ele: 127 [active: 1976-2011]	img/daily-weather.png	24,24	0,-24
52.309	-0.703	wellingborough	WELLINGBOROUGH (00579) northamptonshire lat: 52.309, long: -0.703, ele: 88 [active: 1959-1961]	img/daily-weather.png	24,24	0,-24
52.338	-0.547	raunds	RAUNDS (00580) northamptonshire lat: 52.338, long: -0.547, ele: 59 [active: 1959-1992]	img/daily-weather.png	24,24	0,-24
52.604	-0.311	marholm	MARHOLM (00581) cambridgeshire lat: 52.604, long: -0.311, ele: 21 [active: 1965-2003]	img/daily-weather.png	24,24	0,-24
52.612	-0.468	wittering	WITTERING (00583) cambridgeshire lat: 52.612, long: -0.468, ele: 74 [active: 1957-2017]	img/daily-weather.png	24,24	0,-24
52.449	-1.926	birmingham-king-edwards-school	BIRMINGHAM, KING EDWARDS SCHOOL (00585) west-midlands lat: 52.449, long: -1.926, ele: 137 [active: 1959-1986]	img/daily-weather.png	24,24	0,-24
52.454	-1.924	winterbourne-university-of-birmingham	WINTERBOURNE, UNIVERSITY OF BIRMINGHAM (00586) west-midlands lat: 52.454, long: -1.924, ele: 130 [active: 1988-2012]	img/daily-weather.png	24,24	0,-24
52.173	-1.776	luddington-no-2	LUDDINGTON NO 2 (00588) warwickshire lat: 52.173, long: -1.776, ele: 42 [active: 1959-1968]	img/daily-weather.png	24,24	0,-24
52.173	-1.757	luddington	LUDDINGTON (00589) warwickshire lat: 52.173, long: -1.757, ele: 56 [active: 1968-1989]	img/daily-weather.png	24,24	0,-24
52.192	-1.762	stratford-upon-avon	STRATFORD-UPON-AVON (00590) warwickshire lat: 52.192, long: -1.762, ele: 49 [active: 1959-2001]	img/daily-weather.png	24,24	0,-24
52.064	-1.691	shipston-on-stour	SHIPSTON-ON-STOUR (00592) warwickshire lat: 52.064, long: -1.691, ele: 111 [active: 1959-1982]	img/daily-weather.png	24,24	0,-24
52.453	-1.742	elmdon	ELMDON (00593) west-midlands lat: 52.453, long: -1.742, ele: 96 [active: 1949-1998]	img/daily-weather.png	24,24	0,-24
52.359	-1.331	church-lawford	CHURCH LAWFORD (00595) warwickshire lat: 52.359, long: -1.331, ele: 107 [active: 1991-2017]	img/daily-weather.png	24,24	0,-24
52.206	-1.605	wellesbourne	WELLESBOURNE (00596) warwickshire lat: 52.206, long: -1.605, ele: 47 [active: 1959-2017]	img/daily-weather.png	24,24	0,-24
52.399	-1.575	coventry-torrington-avenue	COVENTRY, TORRINGTON AVENUE (00597) west-midlands lat: 52.399, long: -1.575, ele: 107 [active: 1966-1974]	img/daily-weather.png	24,24	0,-24
52.414	-1.521	coventry-bablake	COVENTRY, BABLAKE (00598) west-midlands lat: 52.414, long: -1.521, ele: 89 [active: 1984-1998]	img/daily-weather.png	24,24	0,-24
52.195	-1.554	moreton-morrell	MORETON MORRELL (00599) warwickshire lat: 52.195, long: -1.554, ele: 85 [active: 1959-1988]	img/daily-weather.png	24,24	0,-24
52.366	-1.49	coventry-airport	COVENTRY AIRPORT (00600) warwickshire lat: 52.366, long: -1.49, ele: 81 [active: 1974-1979]	img/daily-weather.png	24,24	0,-24
52.394	-1.519	coventry	COVENTRY (00601) warwickshire lat: 52.394, long: -1.519, ele: 103 [active: 1951-1966]	img/daily-weather.png	24,24	0,-24
52.289	-1.331	broadwell	BROADWELL (00602) warwickshire lat: 52.289, long: -1.331, ele: 76 [active: 1974-1979]	img/daily-weather.png	24,24	0,-24
52.379	-1.307	long-lawford	LONG LAWFORD (00603) warwickshire lat: 52.379, long: -1.307, ele: 87 [active: 1974-1977]	img/daily-weather.png	24,24	0,-24
52.37	-1.257	rugby	RUGBY (00604) warwickshire lat: 52.37, long: -1.257, ele: 117 [active: 1959-2000]	img/daily-weather.png	24,24	0,-24
51.758	-1.578	brize-norton	BRIZE NORTON (00605) oxfordshire lat: 51.758, long: -1.578, ele: 82 [active: 1968-2017]	img/daily-weather.png	24,24	0,-24
51.761	-1.264	oxford	OXFORD (00606) oxfordshire lat: 51.761, long: -1.264, ele: 63 [active: 1930-2017]	img/daily-weather.png	24,24	0,-24
51.998	-1.406	south-newington	SOUTH NEWINGTON (00607) oxfordshire lat: 51.998, long: -1.406, ele: 105 [active: 1994-2011]	img/daily-weather.png	24,24	0,-24
52.073	-1.334	banbury-grimsbury-p-sta	BANBURY, GRIMSBURY P STA (00608) oxfordshire lat: 52.073, long: -1.334, ele: 87 [active: 1989-1991]	img/daily-weather.png	24,24	0,-24
51.669	-0.996	shirburn-model-farm	SHIRBURN MODEL FARM (00609) oxfordshire lat: 51.669, long: -0.996, ele: 108 [active: 1968-2017]	img/daily-weather.png	24,24	0,-24
51.589	-0.958	maidensgrove	MAIDENSGROVE (00611) oxfordshire lat: 51.589, long: -0.958, ele: 182 [active: 1978-1982]	img/daily-weather.png	24,24	0,-24
51.62	-1.099	benson	BENSON (00613) oxfordshire lat: 51.62, long: -1.099, ele: 57 [active: 1974-2017]	img/daily-weather.png	24,24	0,-24
51.548	-0.84	medmenham-water-research	MEDMENHAM, WATER RESEARCH (00615) buckinghamshire lat: 51.548, long: -0.84, ele: 30 [active: 1962-1981]	img/daily-weather.png	24,24	0,-24
51.889	-1.016	grendon-underwood	GRENDON UNDERWOOD (00616) buckinghamshire lat: 51.889, long: -1.016, ele: 67 [active: 1964-2000]	img/daily-weather.png	24,24	0,-24
51.796	-0.782	aylesbury	AYLESBURY (00618) buckinghamshire lat: 51.796, long: -0.782, ele: 96 [active: 1959-1985]	img/daily-weather.png	24,24	0,-24
51.69	-0.534	chenies-no-2	CHENIES NO 2 (00620) buckinghamshire lat: 51.69, long: -0.534, ele: 139 [active: 1992-1997]	img/daily-weather.png	24,24	0,-24
52.999	-2.27	keele	KEELE (00622) staffordshire lat: 52.999, long: -2.27, ele: 179 [active: 1959-2016]	img/daily-weather.png	24,24	0,-24
52.625	-2.213	oaken	OAKEN (00623) staffordshire lat: 52.625, long: -2.213, ele: 125 [active: 1959-1982]	img/daily-weather.png	24,24	0,-24
52.717	-2.226	wheaton-aston	WHEATON ASTON (00624) staffordshire lat: 52.717, long: -2.226, ele: 111 [active: 1959-1961]	img/daily-weather.png	24,24	0,-24
52.886	-2.183	stone-no-2	STONE NO 2 (00625) staffordshire lat: 52.886, long: -2.183, ele: 107 [active: 1959-1990]	img/daily-weather.png	24,24	0,-24
52.702	-2.12	penkridge	PENKRIDGE (00626) staffordshire lat: 52.702, long: -2.12, ele: 101 [active: 1959-2004]	img/daily-weather.png	24,24	0,-24
53.04	-2.085	cellarhead	CELLARHEAD (00627) staffordshire lat: 53.04, long: -2.085, ele: 228 [active: 1983-1997]	img/daily-weather.png	24,24	0,-24
53.056	-1.951	ipstones-edge	IPSTONES EDGE (00628) staffordshire lat: 53.056, long: -1.951, ele: 340 [active: 1994-2017]	img/daily-weather.png	24,24	0,-24
52.607	-1.917	walsall	WALSALL (00629) west-midlands lat: 52.607, long: -1.917, ele: 163 [active: 1959-1999]	img/daily-weather.png	24,24	0,-24
53.116	-1.949	onecote	ONECOTE (00630) staffordshire lat: 53.116, long: -1.949, ele: 411 [active: 1959-1969]	img/daily-weather.png	24,24	0,-24
52.957	-1.866	denstone	DENSTONE (00631) staffordshire lat: 52.957, long: -1.866, ele: 140 [active: 1994-2006]	img/daily-weather.png	24,24	0,-24
52.858	-3.072	oswestry	OSWESTRY (00632) shropshire lat: 52.858, long: -3.072, ele: 174 [active: 1959-1982]	img/daily-weather.png	24,24	0,-24
52.433	-3.108	newcastle-on-clun	NEWCASTLE ON CLUN (00633) shropshire lat: 52.433, long: -3.108, ele: 215 [active: 1986-1997]	img/daily-weather.png	24,24	0,-24
52.59	-2.95	pennerley	PENNERLEY (00634) shropshire lat: 52.59, long: -2.95, ele: 357 [active: 1988-2011]	img/daily-weather.png	24,24	0,-24
52.856	-3.063	oswestry-school	OSWESTRY SCHOOL (00635) shropshire lat: 52.856, long: -3.063, ele: 139 [active: 1985-2000]	img/daily-weather.png	24,24	0,-24
52.674	-2.891	edge	EDGE (00636) shropshire lat: 52.674, long: -2.891, ele: 126 [active: 1988-2017]	img/daily-weather.png	24,24	0,-24
52.515	-2.83	church-stretton	CHURCH STRETTON (00637) shropshire lat: 52.515, long: -2.83, ele: 187 [active: 1959-1970]	img/daily-weather.png	24,24	0,-24
52.725	-2.842	preston-montford	PRESTON MONTFORD (00638) shropshire lat: 52.725, long: -2.842, ele: 71 [active: 1976-2017]	img/daily-weather.png	24,24	0,-24
52.715	-2.794	shrewsbury-shelton	SHREWSBURY, SHELTON (00639) shropshire lat: 52.715, long: -2.794, ele: 87 [active: 1984-1985]	img/daily-weather.png	24,24	0,-24
52.718	-2.718	shrewsbury-monkmoor-s-wks	SHREWSBURY, MONKMOOR S WKS (00640) shropshire lat: 52.718, long: -2.718, ele: 55 [active: 1959-1983]	img/daily-weather.png	24,24	0,-24
52.367	-2.723	ludlow-college-no-2	LUDLOW COLLEGE NO 2 (00641) shropshire lat: 52.367, long: -2.723, ele: 107 [active: 1988-2002]	img/daily-weather.png	24,24	0,-24
52.355	-2.712	ludlow-w-wks	LUDLOW W WKS (00642) shropshire lat: 52.355, long: -2.712, ele: 72 [active: 1979-1980]	img/daily-weather.png	24,24	0,-24
52.795	-2.665	shawbury	SHAWBURY (00643) shropshire lat: 52.795, long: -2.665, ele: 72 [active: 1957-2017]	img/daily-weather.png	24,24	0,-24
52.398	-2.591	clee-hill	CLEE HILL (00645) shropshire lat: 52.398, long: -2.591, ele: 504 [active: 1966-1971]	img/daily-weather.png	24,24	0,-24
52.405	-2.476	nethercott	NETHERCOTT (00646) shropshire lat: 52.405, long: -2.476, ele: 150 [active: 1994-1994]	img/daily-weather.png	24,24	0,-24
52.413	-2.491	detton-hall	DETTON HALL (00647) shropshire lat: 52.413, long: -2.491, ele: 153 [active: 1994-2003]	img/daily-weather.png	24,24	0,-24
52.64	-2.494	coalbrookdale	COALBROOKDALE (00648) shropshire lat: 52.64, long: -2.494, ele: 73 [active: 1992-2002]	img/daily-weather.png	24,24	0,-24
52.702	-2.485	wellington-no-2	WELLINGTON NO 2 (00649) shropshire lat: 52.702, long: -2.485, ele: 96 [active: 1963-1970]	img/daily-weather.png	24,24	0,-24
52.536	-2.43	bridgnorth	BRIDGNORTH (00650) shropshire lat: 52.536, long: -2.43, ele: 75 [active: 1959-1973]	img/daily-weather.png	24,24	0,-24
52.778	-2.428	newport-salop	NEWPORT (SALOP) (00651) shropshire lat: 52.778, long: -2.428, ele: 66 [active: 1928-2011]	img/daily-weather.png	24,24	0,-24
52.481	-2.37	hampton-loade	HAMPTON LOADE (00652) shropshire lat: 52.481, long: -2.37, ele: 62 [active: 1969-1982]	img/daily-weather.png	24,24	0,-24
52.113	-2.308	malvern	MALVERN (00653) hereford-and-worcester lat: 52.113, long: -2.308, ele: 62 [active: 1912-2008]	img/daily-weather.png	24,24	0,-24
52.211	-2.23	worcester-barbourne	WORCESTER, BARBOURNE (00654) hereford-and-worcester lat: 52.211, long: -2.23, ele: 25 [active: 1988-2003]	img/daily-weather.png	24,24	0,-24
52.18	-2.187	worcester	WORCESTER (00655) hereford-and-worcester lat: 52.18, long: -2.187, ele: 58 [active: 1959-1969]	img/daily-weather.png	24,24	0,-24
52.272	-2.16	droitwich	DROITWICH (00656) hereford-and-worcester lat: 52.272, long: -2.16, ele: 32 [active: 1959-1960]	img/daily-weather.png	24,24	0,-24
52.148	-2.041	pershore	PERSHORE (00657) hereford-and-worcester lat: 52.148, long: -2.041, ele: 35 [active: 1957-2017]	img/daily-weather.png	24,24	0,-24
52.1	-2.06	pershore-college	PERSHORE COLLEGE (00658) hereford-and-worcester lat: 52.1, long: -2.06, ele: 37 [active: 1959-2011]	img/daily-weather.png	24,24	0,-24
52.248	-1.935	astwood-bank	ASTWOOD BANK (00660) hereford-and-worcester lat: 52.248, long: -1.935, ele: 137 [active: 1976-2011]	img/daily-weather.png	24,24	0,-24
52.288	-1.911	ipsley-s-wks	IPSLEY S WKS (00661) hereford-and-worcester lat: 52.288, long: -1.911, ele: 73 [active: 1966-1974]	img/daily-weather.png	24,24	0,-24
52.438	-2.076	halesowen	HALESOWEN (00663) west-midlands lat: 52.438, long: -2.076, ele: 153 [active: 1956-2004]	img/daily-weather.png	24,24	0,-24
52.031	-2.842	madley	MADLEY (00664) hereford-and-worcester lat: 52.031, long: -2.842, ele: 78 [active: 1984-2004]	img/daily-weather.png	24,24	0,-24
52.045	-2.701	hereford	HEREFORD (00665) hereford-and-worcester lat: 52.045, long: -2.701, ele: 51 [active: 1970-1979]	img/daily-weather.png	24,24	0,-24
52.213	-2.975	lyonshall	LYONSHALL (00666) hereford-and-worcester lat: 52.213, long: -2.975, ele: 164 [active: 1959-2014]	img/daily-weather.png	24,24	0,-24
52.086	-2.792	credenhill-no-2	CREDENHILL NO 2 (00667) hereford-and-worcester lat: 52.086, long: -2.792, ele: 75 [active: 1962-1965]	img/daily-weather.png	24,24	0,-24
52.214	-2.587	bromyard-batchley-farm	BROMYARD, BATCHLEY FARM (00668) hereford-and-worcester lat: 52.214, long: -2.587, ele: 250 [active: 1983-2015]	img/daily-weather.png	24,24	0,-24
52.243	-2.886	shobdon-airfield	SHOBDON AIRFIELD (00669) hereford-and-worcester lat: 52.243, long: -2.886, ele: 99 [active: 1992-2017]	img/daily-weather.png	24,24	0,-24
52.121	-2.306	great-malvern	GREAT MALVERN (00670) hereford-and-worcester lat: 52.121, long: -2.306, ele: 44 [active: 1983-2008]	img/daily-weather.png	24,24	0,-24
51.911	-2.586	ross-on-wye	ROSS-ON-WYE (00671) hereford-and-worcester lat: 51.911, long: -2.586, ele: 67 [active: 1914-2017]	img/daily-weather.png	24,24	0,-24
52.224	-2.225	worcester-cornmeadow	WORCESTER, CORNMEADOW (00672) hereford-and-worcester lat: 52.224, long: -2.225, ele: 30 [active: 1983-1986]	img/daily-weather.png	24,24	0,-24
52.125	-2.638	preston-wynne	PRESTON WYNNE (00673) hereford-and-worcester lat: 52.125, long: -2.638, ele: 84 [active: 1959-1999]	img/daily-weather.png	24,24	0,-24
51.506	-2.717	avonmouth	AVONMOUTH (00674) avon lat: 51.506, long: -2.717, ele: 9 [active: 1959-1967]	img/daily-weather.png	24,24	0,-24
51.453	-2.6	bristol-weather-centre	BRISTOL WEATHER CENTRE (00675) avon lat: 51.453, long: -2.6, ele: 42 [active: 1982-2001]	img/daily-weather.png	24,24	0,-24
51.522	-2.577	filton	FILTON (00676) avon lat: 51.522, long: -2.577, ele: 59 [active: 1957-2017]	img/daily-weather.png	24,24	0,-24
51.705	-2.383	slimbridge-six-acres	SLIMBRIDGE, SIX ACRES (00679) gloucestershire lat: 51.705, long: -2.383, ele: 45 [active: 1994-1999]	img/daily-weather.png	24,24	0,-24
51.74	-2.404	slimbridge	SLIMBRIDGE (00680) gloucestershire lat: 51.74, long: -2.404, ele: 5 [active: 1988-1998]	img/daily-weather.png	24,24	0,-24
51.768	-2.238	ruscombe	RUSCOMBE (00681) gloucestershire lat: 51.768, long: -2.238, ele: 186 [active: 1959-1961]	img/daily-weather.png	24,24	0,-24
51.762	-2.246	randwick	RANDWICK (00682) gloucestershire lat: 51.762, long: -2.246, ele: 200 [active: 1989-2003]	img/daily-weather.png	24,24	0,-24
51.84	-2.276	hempsted	HEMPSTED (00683) gloucestershire lat: 51.84, long: -2.276, ele: 12 [active: 1959-1975]	img/daily-weather.png	24,24	0,-24
51.858	-2.218	gloucester	GLOUCESTER (00684) gloucestershire lat: 51.858, long: -2.218, ele: 23 [active: 1960-1975]	img/daily-weather.png	24,24	0,-24
51.808	-2.619	berry-hill	BERRY HILL (00685) gloucestershire lat: 51.808, long: -2.619, ele: 232 [active: 1983-1983]	img/daily-weather.png	24,24	0,-24
51.891	-2.196	innsworth	INNSWORTH (00686) gloucestershire lat: 51.891, long: -2.196, ele: 21 [active: 1975-1981]	img/daily-weather.png	24,24	0,-24
51.895	-2.08	cheltenham	CHELTENHAM (00687) gloucestershire lat: 51.895, long: -2.08, ele: 65 [active: 1900-2001]	img/daily-weather.png	24,24	0,-24
51.709	-1.996	cirencester	CIRENCESTER (00688) gloucestershire lat: 51.709, long: -1.996, ele: 133 [active: 1959-2017]	img/daily-weather.png	24,24	0,-24
51.986	-1.932	didbrook-fields	DIDBROOK FIELDS (00690) gloucestershire lat: 51.986, long: -1.932, ele: 80 [active: 1981-1998]	img/daily-weather.png	24,24	0,-24
51.607	-2.221	westonbirt	WESTONBIRT (00691) gloucestershire lat: 51.607, long: -2.221, ele: 135 [active: 1983-2011]	img/daily-weather.png	24,24	0,-24
51.861	-1.693	little-rissington	LITTLE RISSINGTON (00692) gloucestershire lat: 51.861, long: -1.693, ele: 210 [active: 1957-2017]	img/daily-weather.png	24,24	0,-24
51.506	-0.187	kensington-palace	KENSINGTON PALACE (00694) greater-london lat: 51.506, long: -0.187, ele: 25 [active: 1959-1978]	img/daily-weather.png	24,24	0,-24
51.561	-0.18	hampstead	HAMPSTEAD (00695) greater-london lat: 51.561, long: -0.18, ele: 137 [active: 1910-2011]	img/daily-weather.png	24,24	0,-24
51.505	-0.131	london-st-jamess-park	LONDON, ST JAMES'S PARK (00697) greater-london lat: 51.505, long: -0.131, ele: 5 [active: 1912-2011]	img/daily-weather.png	24,24	0,-24
51.528	-0.152	regents-park	REGENTS PARK (00699) greater-london lat: 51.528, long: -0.152, ele: 39 [active: 1959-1970]	img/daily-weather.png	24,24	0,-24
51.545	-0.132	camden-square	CAMDEN SQUARE (00701) greater-london lat: 51.545, long: -0.132, ele: 37 [active: 1960-1969]	img/daily-weather.png	24,24	0,-24
51.514	-0.118	kingsway	KINGSWAY (00702) greater-london lat: 51.514, long: -0.118, ele: 8 [active: 1960-1965]	img/daily-weather.png	24,24	0,-24
51.524	-0.09	bunhill-row	BUNHILL ROW (00705) greater-london lat: 51.524, long: -0.09, ele: 46 [active: 1959-1965]	img/daily-weather.png	24,24	0,-24
51.48	-0.004	greenwich	GREENWICH (00707) greater-london lat: 51.48, long: -0.004, ele: 7 [active: 1948-1997]	img/daily-weather.png	24,24	0,-24
51.479	-0.451	heathrow	HEATHROW (00708) greater-london lat: 51.479, long: -0.451, ele: 25 [active: 1949-2017]	img/daily-weather.png	24,24	0,-24
51.549	-0.417	northolt	NORTHOLT (00709) greater-london lat: 51.549, long: -0.417, ele: 33 [active: 1961-2017]	img/daily-weather.png	24,24	0,-24
51.613	-0.421	northwood	NORTHWOOD (00710) greater-london lat: 51.613, long: -0.421, ele: 85 [active: 1987-2015]	img/daily-weather.png	24,24	0,-24
51.412	-0.378	hampton-w-wks	HAMPTON W WKS (00711) greater-london lat: 51.412, long: -0.378, ele: 12 [active: 1959-2016]	img/daily-weather.png	24,24	0,-24
51.595	-0.35	wealdstone	WEALDSTONE (00712) greater-london lat: 51.595, long: -0.35, ele: 53 [active: 1959-1982]	img/daily-weather.png	24,24	0,-24
51.615	-0.336	harrow-weald	HARROW WEALD (00713) greater-london lat: 51.615, long: -0.336, ele: 98 [active: 1974-1982]	img/daily-weather.png	24,24	0,-24
51.641	-0.124	southgate	SOUTHGATE (00714) greater-london lat: 51.641, long: -0.124, ele: 67 [active: 1959-1987]	img/daily-weather.png	24,24	0,-24
51.68	-0.056	waltham-cross-capel-manor	WALTHAM CROSS, CAPEL MANOR (00715) greater-london lat: 51.68, long: -0.056, ele: 32 [active: 1989-1992]	img/daily-weather.png	24,24	0,-24
51.646	-0.047	enfield-middlesex-polytechnic	ENFIELD, MIDDLESEX POLYTECHNIC (00716) greater-london lat: 51.646, long: -0.047, ele: 17 [active: 1973-1990]	img/daily-weather.png	24,24	0,-24
51.636	-0.038	enfield	ENFIELD (00717) greater-london lat: 51.636, long: -0.038, ele: 51 [active: 1959-1965]	img/daily-weather.png	24,24	0,-24
51.274	-0.618	merrist-wood	MERRIST WOOD (00718) surrey lat: 51.274, long: -0.618, ele: 51 [active: 1973-1997]	img/daily-weather.png	24,24	0,-24
51.311	-0.476	wisley	WISLEY (00719) surrey lat: 51.311, long: -0.476, ele: 38 [active: 1904-2017]	img/daily-weather.png	24,24	0,-24
51.261	-0.321	mickleham	MICKLEHAM (00720) surrey lat: 51.261, long: -0.321, ele: 55 [active: 1954-2017]	img/daily-weather.png	24,24	0,-24
51.468	-0.316	kew	KEW (00721) greater-london lat: 51.468, long: -0.316, ele: 5 [active: 1957-1973]	img/daily-weather.png	24,24	0,-24
51.482	-0.294	kew-gardens	KEW GARDENS (00723) greater-london lat: 51.482, long: -0.294, ele: 6 [active: 1948-2017]	img/daily-weather.png	24,24	0,-24
51.152	-0.193	gatwick	GATWICK (00725) west-sussex lat: 51.152, long: -0.193, ele: 59 [active: 1958-1998]	img/daily-weather.png	24,24	0,-24
51.304	-0.092	kenley-airfield	KENLEY AIRFIELD (00726) greater-london lat: 51.304, long: -0.092, ele: 170 [active: 1991-2017]	img/daily-weather.png	24,24	0,-24
51.354	-0.117	croydon-airport	CROYDON AIRPORT (00727) greater-london lat: 51.354, long: -0.117, ele: 61 [active: 1957-1959]	img/daily-weather.png	24,24	0,-24
51.359	-0.114	waddon	WADDON (00728) greater-london lat: 51.359, long: -0.114, ele: 59 [active: 1959-1985]	img/daily-weather.png	24,24	0,-24
51.362	-0.059	addington	ADDINGTON (00729) greater-london lat: 51.362, long: -0.059, ele: 144 [active: 1959-1973]	img/daily-weather.png	24,24	0,-24
51.204	0.135	edenbridge	EDENBRIDGE (00730) kent lat: 51.204, long: 0.135, ele: 45 [active: 1973-2017]	img/daily-weather.png	24,24	0,-24
51.404	0.013	bromley	BROMLEY (00731) greater-london lat: 51.404, long: 0.013, ele: 65 [active: 1959-1980]	img/daily-weather.png	24,24	0,-24
51.206	1.015	anvil-green	ANVIL GREEN (00732) kent lat: 51.206, long: 1.015, ele: 140 [active: 1984-1992]	img/daily-weather.png	24,24	0,-24
51.37	0.206	eynsford	EYNSFORD (00733) kent lat: 51.37, long: 0.206, ele: 43 [active: 1990-2008]	img/daily-weather.png	24,24	0,-24
51.41	0.173	swanley	SWANLEY (00734) kent lat: 51.41, long: 0.173, ele: 54 [active: 1959-1967]	img/daily-weather.png	24,24	0,-24
51.441	0.219	dartford	DARTFORD (00736) kent lat: 51.441, long: 0.219, ele: 5 [active: 1959-1970]	img/daily-weather.png	24,24	0,-24
51.131	0.268	tunbridge-wells	TUNBRIDGE WELLS (00737) kent lat: 51.131, long: 0.268, ele: 107 [active: 1959-1964]	img/daily-weather.png	24,24	0,-24
51.223	0.33	hadlow-college	HADLOW COLLEGE (00738) kent lat: 51.223, long: 0.33, ele: 27 [active: 1966-1994]	img/daily-weather.png	24,24	0,-24
59.112	-3.229	orkney-loch-of-hundland	ORKNEY: LOCH OF HUNDLAND (25315) orkney lat: 59.112, long: -3.229, ele: 28 [active: 1999-2017]	img/daily-weather.png	24,24	0,-24
51.272	0.403	west-malling	WEST MALLING (00740) kent lat: 51.272, long: 0.403, ele: 93 [active: 1957-1960]	img/daily-weather.png	24,24	0,-24
51.077	0.46	goudhurst	GOUDHURST (00742) kent lat: 51.077, long: 0.46, ele: 85 [active: 1959-2011]	img/daily-weather.png	24,24	0,-24
51.134	1.343	langdon-bay	LANGDON BAY (00743) kent lat: 51.134, long: 1.343, ele: 117 [active: 1989-2017]	img/daily-weather.png	24,24	0,-24
51.288	0.448	east-malling	EAST MALLING (00744) kent lat: 51.288, long: 0.448, ele: 33 [active: 1925-2017]	img/daily-weather.png	24,24	0,-24
51.365	0.523	chatham-south	CHATHAM SOUTH (00745) kent lat: 51.365, long: 0.523, ele: 91 [active: 1979-1979]	img/daily-weather.png	24,24	0,-24
51.197	0.636	ulcombe	ULCOMBE (00746) kent lat: 51.197, long: 0.636, ele: 47 [active: 1973-1996]	img/daily-weather.png	24,24	0,-24
51.197	0.782	charing	CHARING (00747) kent lat: 51.197, long: 0.782, ele: 91 [active: 1980-2002]	img/daily-weather.png	24,24	0,-24
51.394	0.564	gillingham-no-2	GILLINGHAM NO 2 (00748) kent lat: 51.394, long: 0.564, ele: 3 [active: 1959-1980]	img/daily-weather.png	24,24	0,-24
51.185	0.63	peckham	PECKHAM (00750) kent lat: 51.185, long: 0.63, ele: 29 [active: 1969-1972]	img/daily-weather.png	24,24	0,-24
51.319	0.712	sittingbourne	SITTINGBOURNE (00751) kent lat: 51.319, long: 0.712, ele: 69 [active: 1959-1966]	img/daily-weather.png	24,24	0,-24
51.443	0.69	isle-of-grain-no-2	ISLE OF GRAIN NO 2 (00754) kent lat: 51.443, long: 0.69, ele: 2 [active: 1959-1969]	img/daily-weather.png	24,24	0,-24
51.231	0.839	throwley	THROWLEY (00756) kent lat: 51.231, long: 0.839, ele: 150 [active: 1959-1975]	img/daily-weather.png	24,24	0,-24
51.297	0.878	faversham	FAVERSHAM (00757) kent lat: 51.297, long: 0.878, ele: 46 [active: 1959-2017]	img/daily-weather.png	24,24	0,-24
50.913	0.972	dungeness	DUNGENESS (00758) kent lat: 50.913, long: 0.972, ele: 6 [active: 1957-1979]	img/daily-weather.png	24,24	0,-24
51.185	0.945	wye	WYE (00760) kent lat: 51.185, long: 0.945, ele: 56 [active: 1959-2006]	img/daily-weather.png	24,24	0,-24
51.358	1.032	whitstable	WHITSTABLE (00761) kent lat: 51.358, long: 1.032, ele: 3 [active: 1959-1960]	img/daily-weather.png	24,24	0,-24
51.089	1.16	folkestone-fairway-avenue	FOLKESTONE, FAIRWAY AVENUE (00762) kent lat: 51.089, long: 1.16, ele: 31 [active: 1972-2003]	img/daily-weather.png	24,24	0,-24
51.078	1.178	folkestone	FOLKESTONE (00763) kent lat: 51.078, long: 1.178, ele: 39 [active: 1908-1971]	img/daily-weather.png	24,24	0,-24
51.358	1.135	herne-bay-no-2	HERNE BAY NO 2 (00765) kent lat: 51.358, long: 1.135, ele: 40 [active: 1985-1997]	img/daily-weather.png	24,24	0,-24
51.298	1.235	elmstone	ELMSTONE (00766) kent lat: 51.298, long: 1.235, ele: 9 [active: 1959-1972]	img/daily-weather.png	24,24	0,-24
51.3	1.245	elmstone-no-2	ELMSTONE NO 2 (00767) kent lat: 51.3, long: 1.245, ele: 5 [active: 1972-1994]	img/daily-weather.png	24,24	0,-24
51.363	1.172	herne-bay-maystreet-s-wks	HERNE BAY, MAYSTREET S WKS (00768) kent lat: 51.363, long: 1.172, ele: 31 [active: 1971-1979]	img/daily-weather.png	24,24	0,-24
51.37	1.118	herne-bay	HERNE BAY (00769) kent lat: 51.37, long: 1.118, ele: 6 [active: 1959-1970]	img/daily-weather.png	24,24	0,-24
51.121	1.314	dover	DOVER (00770) kent lat: 51.121, long: 1.314, ele: 6 [active: 1918-1976]	img/daily-weather.png	24,24	0,-24
51.147	1.326	dover-rms	DOVER (RMS) (00772) kent lat: 51.147, long: 1.326, ele: 123 [active: 1959-1979]	img/daily-weather.png	24,24	0,-24
51.157	1.392	st-margarets	ST MARGARETS (00773) kent lat: 51.157, long: 1.392, ele: 83 [active: 1971-1975]	img/daily-weather.png	24,24	0,-24
51.232	1.403	deal	DEAL (00774) kent lat: 51.232, long: 1.403, ele: 2 [active: 1958-1970]	img/daily-weather.png	24,24	0,-24
51.347	1.335	manston	MANSTON (00775) kent lat: 51.347, long: 1.335, ele: 49 [active: 1961-2017]	img/daily-weather.png	24,24	0,-24
51.332	1.422	ramsgate	RAMSGATE (00776) kent lat: 51.332, long: 1.422, ele: 24 [active: 1959-1968]	img/daily-weather.png	24,24	0,-24
51.381	1.42	margate-north-down	MARGATE, NORTH DOWN (00777) kent lat: 51.381, long: 1.42, ele: 42 [active: 1988-2008]	img/daily-weather.png	24,24	0,-24
51.392	1.402	margate	MARGATE (00778) kent lat: 51.392, long: 1.402, ele: 16 [active: 1892-1988]	img/daily-weather.png	24,24	0,-24
50.815	-0.922	thorney-island	THORNEY ISLAND (00779) west-sussex lat: 50.815, long: -0.922, ele: 4 [active: 1957-2017]	img/daily-weather.png	24,24	0,-24
50.782	-0.677	bognor-regis	BOGNOR REGIS (00782) west-sussex lat: 50.782, long: -0.677, ele: 7 [active: 1901-2017]	img/daily-weather.png	24,24	0,-24
